ID,Name,Rating,Review_Count,Address,Phone,Latitude,Longitude,Price
EWhqq-gJktFyGKtouMQ8gw,Home,4.5,78,"455 Grant Ave San Francisco, CA 94108",+14157805423,37.79129,-122.40589,$
gk6DkRAjbVIIRq90zA6t3Q,BOAVIDA,4.5,21,"3560 Taraval St San Francisco, CA 94116",+14157026262,37.741965,-122.504468,$$
qZK7-7t-tK_Fc1CfcNZgqg,Snowbird Coffee,4.0,276,"1352 A 9th Ave San Francisco, CA 94122",+14155737740,37.76308,-122.46591,$
DaOQgNk4LjN2gbvYrLQGvA,Rise & Grind Coffee and Tea,4.5,278,"785 8th Ave San Francisco, CA 94118",+14157801579,37.7737156,-122.4660674,$
-NbDKVqG170J19MqSQ5q_A,The Mill,4.0,1124,"736 Divisadero St San Francisco, CA 94117",+14153451953,37.7764801534107,-122.437750024358,$$
t0MUKjSjCaQeXHTGQlfosg,Home,4.5,1099,"1222 Noriega St San Francisco, CA 94122",+14157420038,37.7544539255473,-122.477013878524,$
O3P-53iS1YK63-0-ek9Ksw,Hollow,4.0,602,"1435 Irving St San Francisco, CA 94122",+14152424119,37.7635812,-122.4734309,$
jdtLZsekui2VR9Xk_0aK1w,Wrecking Ball Coffee Roasters,4.0,275,"2271 Union St San Francisco, CA 94123",+14156389227,37.796753,-122.436631,$$
E8RJkjfdcwgtyoPMjQ_Olg,Four Barrel Coffee,4.0,2083,"375 Valencia St San Francisco, CA 94103",+14158964289,37.7670169511878,-122.42184275,$
Bsz2u4raa8xNolhl3PDV2Q,Home,4.5,591,"2018 Clement St San Francisco, CA 94121",+14157029244,37.782323,-122.480993,$$
IoPgRTk7Cs3ydeM5R2NRZA,Andytown Coffee Roasters,4.5,812,"3655 Lawton St San Francisco, CA 94122",+14157539775,37.756805,-122.502283,$
Lz4OaRhnZM3IdMmbMFIGeQ,Soul Grind Coffee Roasters,4.0,149,"5400 Pacific Coast Hwy Pacifica, CA 94044",+16508988660,37.595136,-122.505998,$$
lL-3T2fZIP_oCYC-uc074w,Flywheel Coffee Roasters,4.0,452,"672 Stanyan St San Francisco, CA 94117",+14156824023,37.7697,-122.45332,$
b-ylC7pGKuh4yw6l1Q1k9g,Golden Bear Trading Company,4.5,1198,"1401 6th Ave San Francisco, CA 94122",+14156645574,37.7621609,-122.463128,$$
VD527WwvrhE3Nhzf5vaMNw,Sightglass Coffee,4.0,1836,"270 Seventh St San Francisco, CA 94103",+14158611313,37.7768998,-122.4086371,$$
OZp55t0eesDBONb5_GdIDA,Native Twins Coffee,5.0,74,"262 Divisadero St San Francisco, CA 94117",+14158749110,37.7714729528423,-122.436936024427,$$
CGFY7HLfDXUIndEJdh3IwA,Rawr Coffee Bar,4.5,27,"2869 Broadway Oakland, CA 94612",+15107017297,37.8171298,-122.2634582,$$
FaT8F0_7su4exwvKJ8ULPw,Réveille Coffee Co.,4.0,415,"4076 18th St San Francisco, CA 94114",+14157896258,37.7610599441666,-122.434422304778,$
24ym9XJUS2i9JlSFEJeZ2w,The Coffee Movement,5.0,124,"1030 Washington St San Francisco, CA 94108",+15108284933,37.79483,-122.4103,$$
CgiF5i-llufbSc6Mz5mW7Q,Ballast Coffee,4.5,107,"329 W Portal Ave San Francisco, CA 94127",,37.73741,-122.46925,$
UbGRVNM4PDIwYge7lzlPqQ,Philz Coffee,4.0,955,"2248 Westborough Blvd Ste 306 South San Francisco, CA 94080",+16508292435,37.6437427,-122.4526582,$
uJQxl8-pdjReMf7zd-wr5w,Cafe Josephine,5.0,12,"199 Museum Way San Francisco, CA 94114",+14153508976,37.76417,-122.43865,N/A
nWYMTPZ1ss-tGOWQHmB0gw,Sightglass Coffee,4.0,106,"301 Divisadero St San Francisco, CA 94117",+14155220112,37.772323,-122.437509,$$
7zdRSvbg9zbp5tV9Y_-glQ,Blue Danube Coffee House,4.0,741,"306 Clement St San Francisco, CA 94118",+14152219041,37.78323,-122.46251,$$
AsmIi9jXkb9ACliVB4Fp9w,Saint Frank Coffee,4.5,668,"2340 Polk St San Francisco, CA 94109",+14158818062,37.798473,-122.422026,$
miIKCMAqgkyb6B_87av_yA,Dead Eye Coffee Bar,5.0,159,"415 Grand Ave Ste 100 South San Francisco, CA 94080",+16507416619,37.6556420306838,-122.412957339738,$
XEC1J2KhXKP02VbXXCzU4w,Firehouse Coffee & Tea,5.0,202,"317 Johnson St Sausalito, CA 94965",+14157299159,37.85853,-122.48396,$
19FlLhyqgZLc5nXzsARvDQ,Neighbor's Corner,5.0,79,"499 Douglass St San Francisco, CA 94114",+14159930499,37.7555695675718,-122.438793493909,$$
aF682DEnmO6TBQdLb_dHwg,Folklores Coffee Traders,4.5,109,"1035 Fillmore St San Francisco, CA 94115",+14156587622,37.7788831,-122.4319671,$
6U1RGouO2I05SVfwIqbZmA,The Richfield,4.5,156,"195 5th Ave San Francisco, CA 94118",,37.7849655151367,-122.463768005371,$
A2Bpbf-6k_Sv63Lp42LUJA,Fifty / Fifty Coffee and Tea,4.0,437,"3157 Geary Blvd San Francisco, CA 94118",+14156848886,37.7814293,-122.4529495,$
wsPDEO08w_lH0x123_YEXg,Philz Coffee,4.5,1052,"549 Castro St San Francisco, CA 94114",+14158759656,37.7601254,-122.4348964,$
Xc_ZRIqAbNfUb2m54xnRoA,Jane on Fillmore,4.0,993,"2123 Fillmore St San Francisco, CA 94115",+14159315263,37.78934,-122.43423,$$
mSvf8NXTM-RlQ_XCAdd0WQ,Andytown Coffee Roasters,4.5,132,"3629 Taraval San Francisco, CA 94116",+14157539775,37.7415,-122.50513,$$
VOoHZDC-dgDUzTSsmgESOQ,Ritual Coffee Roasters,3.5,1905,"1026 Valencia St San Francisco, CA 94110",+14156411011,37.75642,-122.42137,$$
cORp0lwd6Gq6AQ692gjTcw,Philz Coffee,4.0,165,"1110 Ocean Ave San Francisco, CA 94112",+14158411178,37.7235427,-122.4537285,$$
5hGdrv-6iKWTLty3kugopw,Chalos,4.5,202,"2240 Taraval St San Francisco, CA 94116",+14155627752,37.74265,-122.49031,$$
-QEjSB6qySHp5LOm333IpQ,Weaver's Coffee & Tea,4.5,108,"2301 Market St San Francisco, CA 94114",+14154004372,37.7636299133301,-122.433311462402,$
BrGq6WWjVNM8h44KPKl0Xw,Andytown Coffee Roasters,4.5,52,"181 Fremont St Fl 7 San Francisco, CA 94105",+14157539775,37.7898,-122.39532,N/A
XevaLlh2NitjZsFb6HoVmQ,Pinhole Coffee,4.5,184,"231 Cortland Ave San Francisco, CA 94110",+14153648257,37.7396699,-122.41894,$
w3mpnxz64nU8VwHDLz3S6g,Breadbelly,4.5,176,"1408 Clement St San Francisco, CA 94118",+14153490969,37.78275,-122.47439,$$
cnjPZ4eI2lHTHIPlbHk9HQ,Philz Coffee,4.5,308,"4298 24th St San Francisco, CA 94114",+14158171510,37.751149640212,-122.43838046048,$$
n3Bwfjcugs6z4eL6Pmao7g,Ritual Coffee Roasters,4.0,36,"2299 Market St Ste A San Francisco, CA 94114",+14154005036,37.76405,-122.43276,$
pDUpsLSoSw08aREqgGjABg,Wooden Coffeehouse,4.0,84,"862 Cole St San Francisco, CA 94117",+14157424887,37.7660025,-122.4498382,$$
lNbKeOfCMTNkoihZHqrbrg,Blue Bottle Coffee,4.0,2222,"66 Mint St San Francisco, CA 94103",+15106533394,37.7824664727379,-122.407753326389,$$
KRDQab-AjHP66pcbkbc5qQ,CoffeeShop,4.5,344,"3139 Mission St San Francisco, CA 94110",+14153683802,37.747,-122.41865,$$
IY-AC3eWtA0we9WGYn7kyg,Equator Coffees,4.5,223,"244 Shoreline Hwy Mill Valley, CA 94941",+14152093733,37.881657,-122.52445,$
pUlIfRX4ghxYvFUmCzVO9g,Blue House Café,4.5,45,"302 Randolph St San Francisco, CA 94132",+14156194858,37.71449,-122.46557,$
LFUXTp3kBIC06ykrorH6Ww,Ritual Coffee Roasters,4.0,83,"1300 Haight St San Francisco, CA 94117",+14158650929,37.7705210048869,-122.443815842271,$$
E4FkDzb2W1kKGiBT6df4hg,Bernie's,4.5,331,"3966 24th St San Francisco, CA 94114",,37.751604302734,-122.43115716868,$
7Ueg5nzWAPv3LMLc2k9alA,Beanery,4.0,307,"1307 9th Ave San Francisco, CA 94122",+14156611255,37.7638261367704,-122.466385270526,$
K0-z1Wj0tysWhSgMaXtlGg,Philz Coffee,4.5,485,"399 Golden Gate Ave San Francisco, CA 94102",+14156217000,37.78135,-122.41684,$
5rvyNzIminCO4u-hyozv_w,Equator Coffees,4.5,98,"222 2nd St San Francisco, CA 94105",+14158729482,37.7863718240192,-122.398275956512,$$
kvqXqZqGfEqfA0shqAgXDw,Bloomstock,5.0,11,"1730 Yosemite Ave San Francisco, CA 94124",,37.72846,-122.39397,N/A
2HY8Z7uRLv6bQAjt-71Mkw,Cafe de Olla,5.0,3,"2301 Mission St San Francisco, CA 94110",,37.76008,-122.4188,N/A
5BDM9d8DI_iHGyBmJzWBow,Saint Frank Coffee,4.5,34,"1081 Mission St San Francisco, CA 94103",+14158818062,37.7794760416406,-122.410497234799,$$
DRbzdSEBEOkIR5p9l1Ujnw,Stanza Coffee Bar,4.0,234,"1673 Haight St San Francisco, CA 94117",+14155291592,37.76937,-122.45005,$$
7jCbynLs9w6C_ZG9vGjGhw,Matching Half Cafe,4.0,377,"1799 McAllister St San Francisco, CA 94115",+14156748699,37.777294112938,-122.44146193004,$$
CAaCt-zyjxenxdWL2TnQRg,Henry's House of Coffee,4.5,363,"1618 Noriega St San Francisco, CA 94122",+14156819363,37.75429,-122.48122,$
l7x9dM4TVVNMsiUgsdNklw,Cafe Réveille,4.0,105,"201 Steiner St San Francisco, CA 94117",+14155292034,37.7710554824632,-122.432099291995,$$
2hR4tWOCcz88HFYB4U3FkA,Spike's Coffees & Teas,4.5,203,"4117 19th St San Francisco, CA 94114",+14156265573,37.75916,-122.43503,$
ppUyFBWrnUEAnuwPlfSF1A,Mauerpark,4.5,64,"500 Church St San Francisco, CA 94114",+14155254429,37.76269,-122.42872,N/A
Kvb_fDRHOtD7Z-q1r6sn4g,Enough Tea & Coffee,5.0,6,"22 4th St Ste 10 San Francisco, CA 94103",,37.78519767,-122.405786,N/A
EFefgQdk_19WxQXvVtwEog,Blue Bottle Coffee,4.5,1671,"315 Linden St San Francisco, CA 94102",+15106533394,37.77638,-122.423211,$$
FCTaVlAbGzKNIA59mX38dg,Chestnut Street Coffee Roastery,4.0,317,"2331 Chestnut St San Francisco, CA 94123",+14159315282,37.7999724,-122.4417735,$
5oNzSLvDDUyDIHCI4asntA,Castro Coffee Company,4.5,213,"427 Castro St San Francisco, CA 94114",+14155526676,37.7621868135634,-122.434965349623,$
rwjQaoXIpF3HLKGetx5TUw,Cafe 4,4.5,590,"20600 John Dr Castro Valley, CA 94546",+15103703610,37.692684,-122.093701,$
ziENGkelh-BBEEbdAE6k2g,Trouble Coffee Company,3.5,1150,"4033 Judah St San Francisco, CA 94122",+14156909119,37.7603286954313,-122.505439026515,$$
bPNeUoo_yQMwBBphd4pV1Q,Breck's,4.0,32,"2 Clement St San Francisco, CA 94118",+14157425040,37.7832695,-122.45917817,N/A
VFjEXALxQDbpByS1HC9Nrw,Blue Bottle Coffee,3.5,8,"199 Sutter St San Francisco, CA 94104",+15106533394,37.789654,-122.403629,N/A
9XoXFO_3qqHHndg-RqEH_Q,Verve Coffee Roasters,4.0,197,"2101 Market St San Francisco, CA 94114",+14157800867,37.7671543054536,-122.429103925824,$$
jFVOo4dUGCXIU1aDcM1xSA,Blue Bottle Coffee,3.5,99,"2453 Fillmore St San Francisco, CA 94115",+15106533394,37.7920914812167,-122.434531153206,$$
MweAq9W5Vza9XdhO6j-z-w,Four Barrel Coffee,4.0,158,"2 Burrows St San Francisco, CA 94134",,37.7289353,-122.4036865,$$
XpwlIikIpDa8Squ9sHeTqA,Karma Cafe,4.5,60,"1901 Hayes St San Francisco, CA 94117",+14157029761,37.77359,-122.44781,$$
rdgIUJDh3Rnssu3fnzBR9A,Kaleidoscope Coffee,4.5,215,"109 Park Pl Richmond, CA 94801",+15102600848,37.9267555620929,-122.384824076137,$
AfqpSxetSUMc63ZPCfbneg,Craftsman and Wolves,4.0,1513,"746 Valencia St San Francisco, CA 94110",+14159137713,37.7609695,-122.4218206,$$
Yb7cibCAku1zztMjiGuQHw,Jane The Bakery,4.0,288,"1881 Geary Blvd San Francisco, CA 94115",+14156587971,37.7838,-122.43411,$$
kyVarru3AiouGrCO1gZxuw,Iron Horse Coffee,4.5,106,"25 Maiden Ln San Francisco, CA 94108",+14154042877,37.7882923185825,-122.404029965401,$
zR-yA30YzrD97BdFNO9elQ,Beanstalk Café - Inner Richmond,4.0,61,"4555 California St San Francisco, CA 94118",+14157424101,37.78451,-122.4665,$$
4Zz1YLRd6cdNyo2I1gT8kg,Douglas,4.0,36,"1598 Sanchez St San Francisco, CA 94131",+14155903261,37.74367,-122.42914,N/A
y4M-pPW9LZCG0R5euxMs-w,Rustic Bakery,4.0,415,"2017 Larkspur Landing Cir Marin Country Mart Larkspur, CA 94939",+14154619900,37.9478342,-122.50824,$$
cQfRu22j4nAuycKWHexAIA,Réveille Coffee Co.,4.0,404,"200 Columbus Ave San Francisco, CA 94133",+14157896258,37.7972059782064,-122.405463418284,$$
CeKMfsoaLzlpOq53kuvmWw,Brewja Coffee,4.5,38,"15857 Channel St San Lorenzo, CA 94580",,37.67582667,-122.14220833,N/A
-iBAgv9j3SX5u74CRmklFQ,Equator Coffees,4.5,74,"2 Marina Blvd San Francisco, CA 94123",+14157201461,37.8052942,-122.431894908157,$$
v3hMOlyGUQQfGZQMXFNoZg,Sextant Coffee Roasters,4.0,197,"1415 Folsom St San Francisco, CA 94103",+14153551415,37.7724716,-122.4129463,$$
WJbmts16VK_WUEkoOKGzKw,Antigua Coffee Shop,4.5,192,"1131 Taraval St San Francisco, CA 94116",+14156833259,37.7427788,-122.478508,$
rKyZ6bPBXaCp_-lX6TlS1Q,Paramo Coffee Company,4.5,141,"4 Embarcadero Ctr San Francisco, CA 94111",+14154344472,37.7946683906423,-122.395721196916,$
MTIqLOBdISaon4G22qb5Lg,Thorough Bread & Pastry,4.5,847,"248 Church St San Francisco, CA 94114",+14155580690,37.7665123809431,-122.429034858942,$
w9Cp0yvUbvj4dztPbSp_Dg,Philz Coffee,4.5,171,"1258 Minnesota St San Francisco, CA 94107",+14154231474,37.754338,-122.39008,$
G1oAfI-mVeXZttCD1s9SoQ,Spruce Cafe,4.0,295,"230 S Spruce Ave South San Francisco, CA 94080",+16506348438,37.64757,-122.42035,$
8q6K5RpZstSassf4DUcJiw,Highwire Coffee Truck,5.0,1,"2400 Monarch St Alameda, CA 94501",+15104200473,37.7853,-122.30802,N/A
NBHEZHWp5rtZDTEGiwsweA,The Point,4.5,46,"505 Brannan St San Francisco, CA 94107",,37.7777857720232,-122.397009568866,$
YwUNN1gaYHNHbeSeo5PELA,Avenues San Francisco,4.5,48,"3606 Taraval St San Francisco, CA 94116",,37.74191,-122.50488,$$
QRrVqIORkVzaNXRmQCiAuw,UpForDayz Coffee,5.0,89,"1198 Valencia St San Francisco, CA 94110",,37.75393,-122.42118,$
NUrDd8QedLz9G6KFC458sA,Contraband Coffee Bar,4.0,754,"1415 Larkin St San Francisco, CA 94109",+14158397388,37.7910817591518,-122.419250557043,$$
tQE4SPlX9ZlFSbF4JPU4pg,"La Boulangerie de San Francisco, Pine",4.5,756,"2325 Pine St San Francisco, CA 94115",+14154400356,37.78762,-122.43403,$
rYW3fJTOFiqcvTVkNkO39Q,Tierra Mia Coffee,4.5,208,"3188 Mission St San Francisco, CA 94110",+14155253142,37.7458862,-122.4198646,$$
xI2gY1Bf0MrV0E7k9lbUvg,Sightglass Coffee,4.0,234,"3014 20th St San Francisco, CA 94110",+14156411043,37.759243,-122.4111862,$$
1pt2rJJrCxVs5YbWiAqMxQ,As Quoted,3.5,218,"3613 Sacramento St San Francisco, CA 94118",+14159140689,37.78728,-122.45218,$$
O6tHtZC9tEfyHjr7gZ0Nyw,Spin City Coffee,4.0,132,"1299 Sanchez St San Francisco, CA 94114",+14153410244,37.7485,-122.42907,$
aKMxYmJxom1ZeYHpLgGy2g,Coffee Bar,4.0,301,"101 Montgomery St San Francisco, CA 94104",+14156152238,37.7903925,-122.4021594,$$
Pp7aw9Vl_TOtdUyNHrv83Q,Vive La Tarte,4.0,49,"4026 24th St San Francisco, CA 94114",+14157805818,37.75163,-122.43261,$$
b1zMlSbFOk5MfxJ_HiB4SA,Central Coffee Tea & Spice,4.5,311,"1696 Hayes St San Francisco, CA 94117",+14159222008,37.7742194384336,-122.444210797548,$
1U9_ZNruMLf4EL0pMoxb_w,Arsicault Bakery,4.5,1155,"397 Arguello Blvd San Francisco, CA 94118",+14157509460,37.783429,-122.459307,$$
rCpCBeWQ8NNI_q6kq6JlQQ,YakiniQ Cafe,4.0,676,"1640 Post St Fl 2 San Francisco, CA 94115",+14154419291,37.7859461,-122.4288918,$$
Bcvvia9zPFe3BV6c6Ld9Kw,Blue Bottle Coffee,4.0,356,"115 Sansome St San Francisco, CA 94104",+15106533394,37.7913156019325,-122.401013486507,$$
r49CWbLD6ilNlr1dsVWpyw,Phin Bar,5.0,29,"San Francisco, CA 94016",,37.74434,-122.47868,N/A
qL2rC5tuTBWzPk8Vol-rVA,Family Cafe,5.0,32,"362 Columbus Ave San Francisco, CA 94133",,37.79852,-122.40739,$$
b-qKz-s2lYfWnIQJ4QukZQ,Stanza Coffee,4.0,316,"3126 16th St San Francisco, CA 94103",+14155538966,37.7648968,-122.4225344,$
k1LT08YQd0BAMadJJy2IuQ,Sightglass Coffee,4.0,44,"151 3rd St Sfmoma San Francisco, CA 94103",+14153574000,37.78592,-122.4008003,$$
xsPH85XaMLCMYQqTZHnfqA,Lookout Cafe,4.0,32,"600-798 Point Lobos Ave San Francisco, CA 94121",+14153799471,37.779551,-122.511637,$$
x29tzG5M7VbZhpG1jcREKQ,Cafe de Casa,4.5,399,"2701 Leavenworth St San Francisco, CA 94133",+14153451055,37.8061099,-122.41892,$$
PgvPentGpYF5ZuEyHQPi9Q,Provender,4.0,157,"1415 18th St San Francisco, CA 94107",+14156851722,37.7624810100683,-122.396886236966,$$
C3o-rXY_jQ686sSAlouhCw,Cantata Coffee Company,4.0,255,"1708 Haight St San Francisco, CA 94117",+14152215555,37.7696739,-122.4504544,$
K8Fu4xrYFXphxudCoiAz_A,Cafe St. Jorge,4.5,443,"3438 Mission St San Francisco, CA 94110",+14158142028,37.741612083577,-122.422536600206,$$
hCMoQZXyX-hZSm_5Iqfh-Q,Coffee Bar,4.5,78,"433 Kearny St San Francisco, CA 94108",+14157951214,37.79204,-122.40501,$$
4vrX5JhM1D3dTiL4DU5clQ,Neighbor Bakehouse,4.5,739,"2343 3rd St San Francisco, CA 94107",+14155497716,37.759631,-122.388171,$$
LPlebkRnRpmbrjz9Z8sYPg,Farley's,4.0,647,"1315 18th St San Francisco, CA 94107",+14156481545,37.7625322,-122.3959853,$
BFojhdNbAIF1Larqz2t_-Q,Craftsman and Wolves - The Den,4.0,101,"1598 Yosemite Ave San Francisco, CA 94124",+14154233337,37.7269073837324,-122.391263064064,$$
R-1tDX2JbNA1GTR-DWiZQQ,La Promenade Café,4.5,324,"3643 Balboa St San Francisco, CA 94121",+14152216063,37.7755377573718,-122.498195921188,$
oCenYSSuCHBZO3VSHq7GSA,Earth's Coffee,4.0,97,"3400 Geary Blvd San Francisco, CA 94118",+14159338628,37.7817,-122.45587,$
LYR-FTjuFk_cCKI7mqO10A,Hole In The Wall Coffee,4.5,142,"524 Union St San Francisco, CA 94133",+14158102092,37.800665,-122.408218,$
kZtCd070jWwmCAFOTIm2Wg,Blue Bottle Coffee,4.5,104,"1355 Market St Ste 190 San Francisco, CA 94103",+15106533394,37.77674,-122.41636,$$
akXf1BdFZjQb2fO8Ca7FtA,Philz Coffee,4.5,1669,"3101 24th St San Francisco, CA 94110",+14158759370,37.752397102831,-122.41426366546,$
rJuREfb9mZTCNgXDsOPLtw,Sunstream Coffee,4.0,191,"2884 Geary Blvd San Francisco, CA 94118",+14155675330,37.78237,-122.44986,$
SiqcQqHhRtQbtkXOLo640g,Vega Coffee,4.5,128,"1246 Folsom St San Francisco, CA 94103",+14156406843,37.7745635,-122.410969,$
p1M3cWHB3ASp9KlzKovMrQ,Excelsior Coffee,5.0,42,"4495 Mission St San Francisco, CA 94112",,37.72624,-122.43327,$
QpJlxjEoYI1gF1PvScwlvQ,Special Xtra Coffee,4.0,156,"46 Minna St San Francisco, CA 94105",,37.7885614,-122.3982078,$
elgE2cUhKotsLoBUdghexQ,Devil's Teeth Baking Company,4.5,1600,"3876 Noriega St San Francisco, CA 94122",+14156835533,37.753182446703,-122.505007542328,$
MNE2e4UoORx_JqJzKTkRlQ,Cafe Enchante,4.0,311,"6157 Geary Blvd San Francisco, CA 94121",+14155003345,37.7798551,-122.485452,$
Q9KeURmTqRFLKb_3Dxq6Jw,Cafe Murano,4.0,284,"1777 Steiner St San Francisco, CA 94115",,37.785496,-122.435087,$
YLr8XxcQBYsKcKDHwaYnXQ,Blue Bottle Coffee,4.0,132,"2 S Park St San Francisco, CA 94107",+15106533394,37.78242,-122.39323,$$
asOdajhfMCSx_x60j4D42w,Mazarine Coffee,4.0,792,"720 Market St San Francisco, CA 94102",,37.787579982406,-122.404056472387,$$
MX_71BGWVds0YykaEoTaog,Philz Coffee,4.0,15,"2234 Polk St San Francisco, CA 94109",+14156605936,37.79749,-122.4218,N/A
R3YMmqmPIjJh8V80VpTD1w,Le Cafe du Soleil,4.0,702,"200 Fillmore St San Francisco, CA 94102",+14159348637,37.77135,-122.430086,$$
7SRJWnPVRxwqke3d82qefw,Java Beach Cafe,4.0,1048,"1396 La Playa St San Francisco, CA 94122",+14156655282,37.760452,-122.508934,$$
vt7oGi83g4q3PICj-SXCOA,Mission Blue,5.0,54,"144 Leland Ave San Francisco, CA 94134",+14155087416,37.71242,-122.40625,N/A
I-32OYNaIU4AMkUB-17fpw,Stable Cafe,4.0,512,"2128 Folsom St San Francisco, CA 94110",+14155521199,37.7632381549085,-122.41531057781,$
vhBRrvdxmYBmQ9DkVmxb6w,Oakside Cafe,4.0,160,"1195 Oak St San Francisco, CA 94117",+14154371985,37.772893756628,-122.438865154982,$
WUWA_alDU1VOQka8EHSCzw,Ritual Coffee Roasters,4.5,132,"1634 Jerrold Ave San Francisco, CA 94124",+14156946448,37.7396354675293,-122.39005279541,$$
L0unAXIIKcqQrAvtMNb3hg,Fox & Kit,4.0,119,"1031 C St San Rafael, CA 94901",+14159915061,37.97402,-122.5308,$$
I63u4dWV5EN2UXbKBTbBCw,Hippies Brew Express,4.5,1392,"888 C St Hayward, CA 94541",+15104618629,37.6710301,-122.0832826,$
afDaXKW7-juSg2wd7jxWmA,Philz Coffee,4.0,387,"1 Front St Ste 100 San Francisco, CA 94111",+14155682535,37.7918127617658,-122.398988083005,$
pQnKPtegsfJnynKzdMopuw,Klatch Coffee,4.0,66,"1452 Franklin St San Francisco, CA 94109",+14154004476,37.7881248380155,-122.423422336578,$
4qC4rdMhPBV-BDI-ET2ijg,Vive La Tarte,4.5,565,"1160 Howard St San Francisco, CA 94103",+14156345444,37.7769811042271,-122.410907296645,$$
vJaF4HdnmSVF_V0BjeKjtg,Blue Bottle Coffee,4.0,1517,"1 Ferry Building Ste 7 San Francisco, CA 94111",+15106533394,37.7960448083673,-122.393810043172,$
xz1p8uJ9dfh5YVzK_WNxzQ,Bluestone Lane,4.0,270,"227 Front St San Francisco, CA 94111",+17183746858,37.79375,-122.39906,$$
ywuPgzXcP4l1viSteduK9A,Ritual Coffee Roasters,4.0,322,"432B Octavia St San Francisco, CA 94102",+14158650989,37.77646571106,-122.42434780212,$$
MSXZjgGApWCOJUz1-0jKng,Jane on Larkin,4.0,457,"925 Larkin St San Francisco, CA 94109",+14155935359,37.7864643147421,-122.418316288196,$$
qca98_LK1iUXVwEkiaYfiw,Zocalo Coffeehouse,4.0,808,"645 Bancroft Ave San Leandro, CA 94577",+15105690102,37.7332134199904,-122.150912406151,$
NSdPk7sJRclphhYIMe186w,Martha & Brothers Coffee,4.0,131,"401 Irving St San Francisco, CA 94122",+14157424662,37.7640724182129,-122.462303161621,$
6Yoh6t8_nmpJqwmNDENP6w,Yo También Cantina,4.5,51,"205 Hugo St San Francisco, CA 94122",+16282197622,37.76511,-122.46023,$$
45W9g3pArmsMlOK8pYnKcA,Tartine Inner Sunset,3.5,115,"1226 9th Ave San Francisco, CA 94122",+14157425005,37.7654012467317,-122.466277216018,$$
g4a_e2U1XVPU7tbuh7L9Ng,French Bakery,4.5,3,"1101 Taraval St San Francisco, CA 94116",+14157026610,37.742795,-122.478074,N/A
2XsnYnLe_b9-KOx8GCEJAQ,Equator Coffees,4.0,154,"986 Market St San Francisco, CA 94102",+14156149129,37.782661,-122.409997,$$
UVt1r213Ju4wi5YdoDDVmA,Le Trio,4.5,92,"2575 Judah St San Francisco, CA 94122",+14157425746,37.7609,-122.48952,N/A
V8wOXvAbS9ghCMuYlPQVww,Spro Coffee Lab,4.5,195,"601 Mission Bay Blvd N San Francisco, CA 94158",+14156636811,37.770788,-122.391632,$$
BNrzxkJNS7cos8s_VzIA5A,Philz Coffee,4.5,184,"300 Folsom St San Francisco, CA 94105",+14152306359,37.7886764013327,-122.393061536082,$$
xK1a8IdJzw-T1rao_fwNXg,Orson's Belly,4.5,140,"1737 Balboa St San Francisco, CA 94121",+14153403967,37.77646,-122.47773,$$
EbBEbroBw1k_g5Aqokk0rA,Bean Bag Cafe,4.0,862,"601 Divisadero St San Francisco, CA 94117",+14155633634,37.7750101,-122.4378421,$$
hpWcjUQ0dhXRN-2wUWQYCQ,Cinderella Bakery & Cafe,4.0,954,"436 Balboa St San Francisco, CA 94118",+14157519690,37.77745,-122.46374,$$
r8fn5tRnxCWw_g8dV-7Biw,Coffee Mission,4.0,127,"3325 24th St San Francisco, CA 94110",+14158749419,37.7520686810062,-122.419053996924,$
6iR0zBfiup79DErYKAXY0Q,Cafe International,4.0,411,"508 Haight St San Francisco, CA 94117",+14155527390,37.77227,-122.43084,$
yE7T_HNyweNF_HvGbB4nfQ,Kasama Cà Phê,5.0,11,"2127 Polk St San Francisco, CA 94109",,37.7963794,-122.4222862,N/A
7SpJ-giYeXl9kJpDp1eR-A,Equator Coffees,4.0,168,"2 Miller Ave Mill Valley, CA 94941",+14153831651,37.9059,-122.54845,$$
405xpGfzDWLqD638kMIpyg,Samovar - Fillmore St.,4.0,56,"1910 Fillmore St San Francisco, CA 94115",+14158143507,37.7874279428932,-122.433437053773,$$
iuOjXmZ_C88EF0LCtoHCUA,Cafe Réveille,3.5,368,"610 Long Bridge St San Francisco, CA 94158",+14155807260,37.7734805146623,-122.391614224992,$$
FHvobRUdD3QTHR-k0vhtKA,Never Too Latte Cafe,4.0,953,"486 San Mateo Ave San Bruno, CA 94066",+16505884685,37.6240687072277,-122.411187440157,$
cOEChlUFM3SZGSz7fKs0lw,Sausalito Equator,4.0,23,"1201 Bridgeway Sausalito, CA 94965",+14157299656,37.859072,-122.485357,$$
xvnVHrF9-XOnEB6coXS3ew,"Andytown Roastery, Training Lab, & Coffee Supply",3.5,46,"3016 Taraval San Francisco, CA 94116",+14157029859,37.74228,-122.4987,$$
jTk2zGDdDSVKk3oA0v37xg,Pentacle Coffee,5.0,66,"64 6th St San Francisco, CA 94103",+14155086258,37.78117,-122.40936,$$
Dq4nwjdpoA1xqmPguJwf6w,Tan Tan Coffee Shop,4.0,65,"1825 Post St San Francisco, CA 94115",+14153466260,37.78497,-122.43185,$
f217K42Tq5pp1EEKyVU4hw,Neutral Coffee & Tea,5.0,2,"683 Commercial St San Francisco, CA 94111",,37.7940458000526,-122.404234770735,N/A
ri7UUYmx21AgSpRsf4-9QA,Tartine Bakery & Cafe,4.0,7830,"600 Guerrero St San Francisco, CA 94110",+14154872600,37.7614250022004,-122.424051321456,$$
tp4LkulPbI9mXWFZmgk8fA,Martha & Brothers Coffee,4.0,199,"3868 24th St San Francisco, CA 94114",+14156414433,37.7518,-122.42896,$
U1UGWvpNxPAlojTpe1LSvA,Cool Cravings,4.5,130,"1635 Divisadero St San Francisco, CA 94115",+14157714900,37.78479,-122.4403534,$$
5VNDT0bMIytE1GpEb6jSxA,Twisted Donuts and Coffee,4.0,444,"1243 Noriega St San Francisco, CA 94122",+14154635437,37.7540223,-122.4772129,$
TcbKvh-e1lxywJuN6in5JQ,Farm : Table,4.0,1773,"754 Post St San Francisco, CA 94109",+14153005652,37.78768,-122.414339,$$
maAQS_2-3GQtmFVRJCt_2w,Breakfast Little,5.0,124,"3224 1/2 22nd St San Francisco, CA 94110",+14156198686,37.75552,-122.41955,$
r2VvA24rgH-42Bo2ZeOU9A,ilana Coffee,4.5,179,"2314 Clement St San Francisco, CA 94121",+14153872313,37.7822914,-122.4841766,$
TK-AfnulnF5yvL5aRFhniA,Diamond Cafe,4.5,135,"751 Diamond St San Francisco, CA 94114",+14156553674,37.7512897856745,-122.43616884886,$$
I0UVBT1-k0LqUICRLr9l5A,Dynamo Donut & Coffee,4.0,1856,"2760 24th St San Francisco, CA 94110",+14159201978,37.752971,-122.407676,$
RLuVFabZ6BR-BzBPmI1Uzg,Cafe La Flore Irving,4.5,409,"1340 Irving St San Francisco, CA 94122",+14155245203,37.76399,-122.47243,$$
c22FFlw_mGsT1TcgZpOo8w,Higher Grounds Coffee House,4.5,434,"691 Chenery St San Francisco, CA 94131",+14155872933,37.7343559265137,-122.433723449707,$$
quQf_jkAwzqFFGNHAq6bxQ,Counter Culture Coffee,5.0,8,"1329 64th St Emeryville, CA 94608",+19193615282,37.8450803475575,-122.289711590601,N/A
nE0A10WAQzl9yRHDH0nwlg,Bluestone Lane Theatre District Cafe,3.5,22,"562 Sutter St San Francisco, CA 94102",+17183746858,37.7892025,-122.4098192,N/A
eMdPsx0IuQaZ8Az-QCrGTQ,Funny Library Coffee Shop,3.0,17,"250 4th St San Francisco, CA 94103",+14154631368,37.78235,-122.40209,N/A
r-L3a4mKLPkCkGf9Askx0g,Philz Coffee,4.5,376,"5 Embarcadero Ctr San Francisco, CA 94111",+14153211499,37.7943859062427,-122.39535972476,$
EfkCyCaKoUFVdkRoi2prMw,Yasukochi's Sweet Stop,4.5,578,"1790 Sutter St San Francisco, CA 94115",+14159318165,37.78673,-122.42978,$$
EIE9lm4086L7wNiqGqpsKA,Coffee Cultures,4.0,114,"1301 Mission St San Francisco, CA 94103",+14158964272,37.7760169057583,-122.414747737348,$
BTuM18_theVCLWBvWZDcbA,Coffeebar - Redwood City,4.5,41,"2020 Broadway St Redwood City, CA 94063",+16507790466,37.48682,-122.22677,N/A
zXs_6CyjuedlfxWKi_Gkig,Granola's Coffee House,4.5,203,"116 N Cabrillo Hwy Half Moon Bay, CA 94019",+16504404692,37.471173,-122.43479,$$
1Kf_aEvpjGTgNiIwHY7HKQ,Royal Ground Coffee,4.0,133,"3101 Geary Blvd San Francisco, CA 94118",+14153862057,37.7816371,-122.452259,$
HZThElQfFLIqGc8ZVdRh7g,Coffee to the People,3.5,498,"1206 Masonic Ave San Francisco, CA 94117",+14156262435,37.7700381,-122.4451237,$
W9FJjqLEgP9g6pTj45gP4A,Bluestone Lane,3.5,96,"685 Market St San Francisco, CA 94103",+17183746858,37.7878156,-122.4028152,$$
Fc3OLXzSqYp8cM5ixc7jug,Flore,3.5,1137,"2298 Market St San Francisco, CA 94114",+14156218579,37.76466,-122.43294,$$
XmJvy41_tJLOS8WCAVQB5g,The Revolution Cafe,3.5,534,"3248 22nd St San Francisco, CA 94110",+14156420474,37.75552,-122.41955,$
9lX1QuC6GBj7WyKImHkRRw,Mr Holmes Bakehouse,4.0,2425,"1042 Larkin St San Francisco, CA 94109",+14158297700,37.7875909362522,-122.418352626264,$$
fyeTybE7wDkieUwq4urOCA,Beachside Coffee Bar & Kitchen,4.0,828,"4300 Judah St San Francisco, CA 94122",+14156824961,37.76056,-122.50825,$$
cJ1MwwYKBlEWmZIim49r0Q,Toasty,4.0,159,"2760 Octavia St San Francisco, CA 94123",+14156409047,37.79761,-122.42862,$$
wdlyeH5ug7uZpvtb-N97fQ,The Buena Vista,4.0,2601,"2765 Hyde St San Francisco, CA 94109",+14154745044,37.806509097529,-122.42072219051,$$
fEieX4XShBAmlSWJhF2w_w,M.H.Bread and Butter,4.5,359,"101 San Anselmo Ave San Anselmo, CA 94960",+14157554575,37.970569,-122.561661,$$
jCBTQri4FzW6aQVXLBh1_w,Beacon Coffee & Pantry,4.0,293,"805 Columbus Ave San Francisco, CA 94133",+14158142551,37.802167,-122.4131141,$
zeO401-Y-2BLiIv9bl0UkA,Scullery,4.5,215,"687 Geary St San Francisco, CA 94102",+14154404497,37.7864,-122.41451,$
DTPkKWdzFfjEhdrMN12dYg,East Bay Coffee Company,4.5,657,"2529 San Pablo Ave Pinole, CA 94564",+15109647827,38.00664,-122.28853,$
L0Y3bx42EeavcioZUHmjFQ,Everbowl,5.0,12,"170 O'Farrell St San Francisco, CA 94102",,37.78679,-122.40736,N/A
exgxnN3AJiMQg34U78I5Fw,Alamo Square Cafe,4.0,140,"711 Fillmore St San Francisco, CA 94117",+14157962379,37.7760594,-122.4313766,$
jM9XHX03w300rvDKAzE1sQ,Double Shot Coffee,4.0,62,"4587 Mission St San Francisco, CA 94112",+14155089064,37.724826,-122.434426,$
Rj7h0U3Qm8NABv7IdBremg,Starbucks,3.5,424,"3595 California St San Francisco, CA 94118",+14153872249,37.786261,-122.453194,$
7Lmkx9fcBINx6rJOhul3_A,20th Century Cafe,4.0,456,"198 Gough St San Francisco, CA 94102",+14156212380,37.7749343,-122.4223706,$$
Se1xmgWc4JRWPG5MiZFzNg,Golden Goat Coffee,5.0,42,"599 3rd St San Francisco, CA 94107",,37.78044,-122.39425,N/A
O0iAR6OBHXqFtK4nKO9g2Q,Beanstalk Cafe,4.0,835,"724 Bush St San Francisco, CA 94108",+14155761966,37.7901517599821,-122.409288436174,$
f6PVeKj4VFl9KRJg9SXwIg,The Station SF,4.0,307,"596 Pacific Ave San Francisco, CA 94133",+14152910690,37.7972298,-122.4051514,$$
fIkLJ_xpZo8py8SYTXYkPQ,Kantine,4.0,162,"1906 Market St San Francisco, CA 94102",+14157357123,37.770655,-122.425312,$$
UM_4Lol2HWPhdnRIcZn_ew,Covo Café & Tap Lounge,4.5,18,"981 Mission St Covo San Francisco, CA 94103",+14158866206,37.78114,-122.40788,$$
VQPtsRVNTFkFptcXDTtIyg,Urban Ritual,4.5,520,"488 Fell St San Francisco, CA 94102",+14155902873,37.77576,-122.42585,$
xDwEMq8kgT0eQepn90Jkvg,Arizmendi Bakery,4.5,1908,"1331 9th Ave San Francisco, CA 94122",+14155663117,37.7633882,-122.4664991,$
dfDkwWmeD1_ACBcDHYQSqw,La Boulangerie de San Francisco - Cole,3.5,124,"1000 Cole St San Francisco, CA 94117",+14155928549,37.7647738,-122.449517,$$
SQqQq1OWGbO4MGUcGWOH7A,Fox and Lion Bread,5.0,62,"5273 3rd St San Francisco, CA 94124",+14158729789,37.7296068,-122.3923499,$
j9EVcmunMUIFut_EpsYrog,Caffe Trieste,4.0,680,"601 Vallejo St San Francisco, CA 94133",+14153926739,37.798666,-122.407322,$
_rtt2pS-afsAljWuYVcg_w,Kizler Coffee,4.5,104,"330 Palmetto Ave Pacifica, CA 94044",+16504513680,37.65176,-122.49109,$
-8mvLH7dsKaIBCy76kOJgA,Vasquez Coffee Company,4.5,25,"50 Mendell St Ste 1 San Francisco, CA 94124",+14158242925,37.74371,-122.38404,$$
RQxgu_B4hXBxNjbqptuvhA,The Laundry Cafe,4.5,5,"3359 26th St San Francisco, CA 94110",+14159857746,37.74883,-122.41725,N/A
N2MO7risubQGcEoVhDUoyw,Sacred Grounds Coffee House,3.5,144,"2095 Hayes St San Francisco, CA 94117",+14153873859,37.7732469785941,-122.450822991891,$
Jpxv-URBpIvcu0mE5B6S3g,Cafe Okawari,4.5,68,"236 Townsend St San Francisco, CA 94107",+14158015927,37.77826,-122.39388,$$
oHuPyoGY7nhCQeprHCv21g,Noe Valley Bakery,4.0,732,"4073 24th St San Francisco, CA 94114",+14155501405,37.75121,-122.4334,$$
u0lqYWGjDJUqA9ZCLonl7A,Philz Coffee,4.5,117,"1775 17th St San Francisco, CA 94103",+14158148096,37.76475,-122.40129,$
ajuYwySutMShLW6WLJfapw,Linea Caffe,4.0,183,"3417 18th St San Francisco, CA 94110",+14155903011,37.7616956528829,-122.419991932757,$$
IEfTo6SfKXlyNiLGqpdeww,Bluestone Lane,4.5,29,"55 2nd St San Francisco, CA 94105",,37.78888,-122.40028,N/A
9hkKmtG2BruWwrqltt0Klg,Chai Bar By David Rio,4.0,450,"1019 Market St San Francisco, CA 94103",+14158650677,37.781819251714,-122.410724759102,$
wN9fCMRaQxRcAdchpmzgwg,El Cafe,5.0,56,"1400 Taraval Street 24th Ave San Francisco, CA 94116",+14155929850,37.742945,-122.481242,$
vN62LU8SPRThy_Qr0WnR5A,Cento,4.0,217,"372 Ritch St San Francisco, CA 94107",+13607482478,37.778745250608,-122.39396334359,$
cfUWDJWdlHWbp9iP072Dog,Starbucks Reserve,4.5,75,"201 Mission Street Ste 100 San Francisco, CA 94105",+14155431510,37.791511,-122.395103,$$
_MOE-nM-de7XKzKl2mFdxA,Contraband Coffee Bar,4.0,153,"260 5th St San Francisco, CA 94103",+14156885608,37.7807734161615,-122.404073551297,$$
UNOpk-vNBIUpbsn-DwfN6Q,Caffe Roma Coffee Roasting,3.0,117,"885 Bryant St San Francisco, CA 94103",+14152967662,37.77446,-122.40413,$$
yJ4Zn2bQ103xqRdIf_h61A,States Coffee,5.0,608,"609 Ward St Martinez, CA 94553",+19253166038,38.0164831,-122.1367589,$$
RyMG16yT-rON-uscR3QFwg,Lava Java,4.0,181,"852 Stanyan St San Francisco, CA 94117",+14157517375,37.7669286,-122.4528939,$
gqVl3RprESEqkIPeJH0yOg,Zazie,4.0,4356,"941 Cole St San Francisco, CA 94117",+14155645332,37.765244,-122.4501138,$$
LV9GJW3NCHgMRbnWo_5xgw,Stonemill Matcha,4.0,796,"561 Valencia St San Francisco, CA 94110",,37.76401,-122.4215,$$
w-F9xOVAQaiLINR5VWhOfQ,Duboce Park Cafe,3.5,465,"2 Sanchez St San Francisco, CA 94114",+14156211108,37.7692179,-122.4315675,$$
Jqf2wj7AtgDHafGpuODKjA,Tierra Mia Coffee,4.0,489,"2001 Broadway St Oakland, CA 94612",+15109860511,37.8092649447624,-122.268329387781,$
C60uLcN-7J2VwH9sBjVg8w,Tasty Coffee,4.5,54,"1818 San Jose Ave San Francisco, CA 94112",+14155858853,37.72861,-122.44052,$
cEzXkqlAh6X-nNfBdOolng,Caffe Centro,4.0,401,"102 S Park St San Francisco, CA 94107",+14158821500,37.7816338068441,-122.394201525131,$
7JTreWpsi8KXO6UM96pJww,Caffe Central,4.0,27,"530 Parnassus Ave Kalmanovitz Library San Francisco, CA 94143",+14157026822,37.7633476,-122.458931,$$
Y-9BkxtSP_X1PzzWMSgcKQ,Nook,4.0,702,"1500 Hyde St San Francisco, CA 94109",+14154474100,37.79473,-122.41798,$$
AafLnjvaMmt1y7Rx41aPTQ,Catahoula Coffee Company,4.5,484,"12472 San Pablo Ave Richmond, CA 94805",+15102350525,37.9398399,-122.32679,$
zEa872CgMv9iaFxsUafE2g,Red Door Coffee,4.0,139,"111 Minna St San Francisco, CA 94105",+14159741719,37.787385,-122.399547,$$
LQ5T45wJZ4fSR_SMAbPl0Q,Fika Cafe,5.0,27,"480 Primrose Rd Burlingame Public Library Burlingame, CA 94010",+16502780509,37.57922,-122.34886,$$$
d3trbu-A0LZ1Ppidjbr0uw,Here Comes The Sun,4.5,159,"8455 N Cabrillo Hwy Montara, CA 94037",+16504554308,37.54117,-122.51609,$
vgBioh7uLwuvxsmyXibUDQ,Paris Baguette,3.0,535,"2278 Westborough Blvd South San Francisco, CA 94080",+16509520404,37.644952,-122.452758,$$
JdvQpQ-6XpVn3zTpM7ZCsQ,Backhaus,4.5,182,"32 E 3rd Ave San Mateo, CA 94401",+16502009493,37.5633452,-122.3251067,$$
AA1wdUC-d3XyHp_6G2dD_w,Morning Due Cafe,4.0,490,"3698 17th St San Francisco, CA 94114",+14156217156,37.7630481,-122.4284266,$$
6tkm2NB3L2q9UfM-7jUE5A,Bluestone Lane Financial District Coffee Shop,4.0,23,"225 Bush St San Francisco, CA 94104",+17183746858,37.7910068,-122.4012623,N/A
uzqUJiCHUqV2c3PnvSsqeQ,Caffe Greco,4.0,1012,"423 Columbus Ave San Francisco, CA 94133",+14153976261,37.798918,-122.4084483,$
SQ_FYJyebhA8IpOOpRp5lg,Rustic Bakery,4.0,213,"1139 Magnolia Ave Larkspur, CA 94939",+14159251556,37.9477118,-122.5480762,$$
obYQaSOevgeWyssKIbGXxA,Cafe Alma,5.0,15,"888 Innes Ave San Francisco, CA 94124",+14153363286,37.732061,-122.375343,$$
t_89aTecX2_eFBUto_dCPw,Crossroads Cafe,4.0,982,"699 Delancey St San Francisco, CA 94107",+14155125111,37.7831325,-122.3890356,$
TIb67-bkIS6tMNF2bHrQlg,Nespresso Boutique,3.5,445,"90 Grant Ave San Francisco, CA 94108",+14153912643,37.787675,-122.404846,$$
KEVnqUxjgghDhO2HHmONCQ,Another Cafe,4.0,439,"1191 Pine St San Francisco, CA 94109",+14158575770,37.7901729,-122.4154032,$$
qlgzqXk8X2uW8wZEYfHqLw,Starbucks,5.0,2,"2675 Geary Blvd Target San Francisco, CA 94118",+14157965280,37.782074,-122.44708,N/A
aKUbSh_tExzYRRxk3PrYig,Ebbtide Cafe,4.0,71,"311 Mirada Rd Half Moon Bay, CA 94019",,37.49472,-122.46119,$
PpJP04qfX_UxhFCwt0lwzA,Martha & Bros Coffee Company,4.0,214,"1551 Church St San Francisco, CA 94131",+14156481166,37.745998,-122.426645,$
OJXTGm0hXBcqV4iJfIpMdA,Graffeo Coffee Roasting Company,4.5,141,"735 Columbus Ave San Francisco, CA 94133",+14159862420,37.80133,-122.41201,$$
EkQ7Tsfx7qP7zXTKBRCsvQ,The Beanery,4.0,150,"602 Irving St San Francisco, CA 94122",+14156611090,37.764253158956,-122.464595011662,$
IoNI0QWbinqdphW6EnATog,Progressive Grounds,4.0,355,"400 Cortland Ave San Francisco, CA 94110",+14152826233,37.73895,-122.41769,$$
isA5cBPJfGFyLLE4zkp-yQ,Red Bay Coffee Richmond,4.5,9,"1503 Macdonald Ave Richmond, CA 94801",+15103992441,37.9357936619,-122.354715195,N/A
gMqVjmNcdU7K6k6OI1Fj1A,Five Star Truffles Co.,4.5,188,"4251 A 18th St San Francisco, CA 94114",+14155525128,37.76058,-122.43693,$
sI_N3hphzWgRUnjTzjzsHw,85°C Bakery Cafe,3.0,340,"5-L Serramonte Ctr Daly City, CA 94015",+16509928585,37.6693782,-122.4708298,$
9EjQuSlW4g0ssWcz1wYtLA,La Bande,4.0,15,"1100 Market St San Francisco, CA 94102",+16288952030,37.78087,-122.41239,$$
YZK2hMkmjjIWgHDO2Ksz-Q,ONE65 Patisserie & Boutique,4.0,134,"165 O'Farrell St San Francisco, CA 94102",+14158148888,37.786249,-122.407372,$$
OfbRaVdL41hRR65Y9UXMZw,The Art Bistro,4.5,298,"2960 Clement St San Francisco, CA 94121",+14153797119,37.781894,-122.491163,$
xnnGdAR6V96hfEhgIJ_P9w,Dandelion Chocolate,4.5,1386,"740 Valencia St San Francisco, CA 94110",+14153490942,37.760956,-122.421822,$$
mEHXXc6H975yW2yjzENCxA,Cumaica Coffee,3.5,123,"200 Clement St San Francisco, CA 94118",+14157500774,37.7832318053947,-122.461379258057,$
oxpnwy4bnPuDxOsFK_a3sw,Timeless Coffee,4.0,757,"4252 Piedmont Ave Oakland, CA 94611",+15109851360,37.828159,-122.2498629,$$
6sMrtxZMa7OpUGSkqpjsDQ,K Five Fifty,5.0,4,"550 Kearny St San Francisco, CA 94108",+14152981118,37.793258,-122.40433,N/A
sfqkkqFmmYGOT0PCbbD9ZQ,Pearl 6101,4.5,219,"6101 California St San Francisco, CA 94121",+14155929777,37.7838344,-122.4830463,$$
HjKRwtL3gZ2RL3KQULXKsA,The Velo Rouge Cafe,4.0,718,"798 Arguello Blvd San Francisco, CA 94118",+14157527799,37.775456,-122.458237,$
ztHkdSGx6HQWddanLfSPFw,Luna's Coffee House,5.0,55,"1101 Potrero Ave San Francisco, CA 94110",+14157103066,37.7542538394443,-122.406396576686,$
HRyBoh32eQDJ1MPWFHlGpg,Jackson Place Cafe,4.5,204,"633 Battery St San Francisco, CA 94111",,37.7970754,-122.4009192,$
TdXsIPBVRLP3DR-A3sKdpg,Tartine Manufactory,3.5,1176,"595 Alabama St San Francisco, CA 94110",+14157570007,37.7618402321822,-122.41198167347,$$
_hOVIgjVRl_HzvLaa65KJg,The Snug,4.0,183,"2301 Fillmore St San Francisco, CA 94115",+14155625092,37.79094,-122.43443,$$
tYD-CUfuLF8Hpt0ELiQpKA,Martha & Brothers Coffee,4.0,175,"745 Cortland Ave San Francisco, CA 94110",+14156427585,37.73904,-122.41476,$
AUn09MB4UJEII_JHclBfFA,Slingshot,4.5,35,"422 Larkin St San Francisco, CA 94102",+14158298437,37.781710067093,-122.417064321143,$$
hw5CNSJl90wD9Z8KYGNeEA,Cup Cafe,5.0,230,"6 Monterey Blvd San Francisco, CA 94131",,37.7324501841132,-122.434748761081,$
Evr0y8fwFEOqXBf7cNW8zg,Bello Coffee & Tea,4.0,357,"2885 Diamond St San Francisco, CA 94131",+14155853457,37.733797103285,-122.43399331088,$
Av-PbVkajf1XrgqIS8POSQ,Stella Pastry & Cafe,4.0,1302,"446 Columbus Ave San Francisco, CA 94133",+14159862914,37.79918,-122.40828,$
xOT6UHAlZvOUAMrP80n3dA,Sausalito Bakery & Cafe,4.0,339,"571 Bridgeway Sausalito, CA 94965",+14153319552,37.8539296411907,-122.479178089123,$$
qseuvN1IIwRBBtvc8Xq-DQ,Blue Bottle Coffee,3.5,41,"168 2nd St San Francisco, CA 94105",+15106533394,37.78703,-122.39885,$$
8aIz9jEERdZqmmBAxxv6Nw,CoRo Coffee Room,4.5,50,"2324 Fifth St Berkeley, CA 94710",+15105422540,37.8625373,-122.2974637,$$
Rc9abU8CqE__VBgttD3VyA,Chapel Hill Coffee,4.0,65,"670 Commercial St San Francisco, CA 94111",,37.794135537286,-122.404256947339,$$
l3CO569of8E_Dw7ITfrqiw,Grand Coffee,4.5,184,"2663 Mission St San Francisco, CA 94110",,37.75439,-122.41846,$
w_CDMwPaFE8L-cFQZzFyTg,Church Street Cafe,4.0,267,"260 Church St San Francisco, CA 94114",+14156212233,37.76639,-122.429053,$
3S5EWxIeaXZFZMCwuuUHJQ,Tallio's Coffee & Tea,5.0,2,"4912 3rd St San Francisco, CA 94124",+14156628137,37.73388,-122.39135,N/A
RF-9DydHA1BsTaRx_MB-eQ,Haus Coffee,3.5,426,"3086 24th St San Francisco, CA 94110",+14153747353,37.752645078614,-122.41373013352,$$
Zah5m13qNMqd-7xGK61Cjw,Pump Espresso Bar,5.0,19,"6700 Sir Francis Drake Blvd Forest Knolls, CA 94933",+14155782813,38.01586,-122.68493,$
Oyvv2L6Is1AAZiJ3RI6ZPg,Red Whale Coffee,4.5,186,"169 Paul Dr San Rafael, CA 94903",+14159066277,38.019,-122.53701,$$
S_KR9tuaPqEGACNrux24mA,Cafe Lambretta,4.0,57,"700 2nd St San Francisco, CA 94107",,37.780492,-122.390556,$$
Tc8saXtOXpRiA8CoXQsfdA,Royal Ground Coffee,4.0,218,"2216 Polk St San Francisco, CA 94109",+14154745957,37.79716,-122.42173,$
cNHcwJ4eLDOzwZP8e4ETkQ,Josey Baker Bread,4.5,97,"736 Divisadero St San Francisco, CA 94117",,37.7764801534107,-122.437750024358,$$
MsBfFq6J4i_sYv9nptH36w,Blue Bottle Coffee,4.0,35,"628 California St San Francisco, CA 94108",+15106533394,37.792731,-122.405216,$$
mXSnlX8bF6HY0Y_1t9BQrA,Japonica,4.5,109,"5503 California St San Francisco, CA 94121",+14156688663,37.784094,-122.476617,$$
0jXya0EWHwLrlu8W5pU6ig,Socola Chocolatier and Barista,4.5,165,"535 Folsom St San Francisco, CA 94105",+14154004071,37.7865549,-122.395089,$$
Wy8Yg5_0YngwzFBN6lZf9g,Estas Manos Coffee Roasters,5.0,3,"425 Mission St San Francisco, CA 94105",+14159339760,37.790117,-122.396913,N/A
J3MtGX73_3l3afYAA_UloA,illy Caffè,4.0,159,"123 Battery St San Francisco, CA 94111",+16284443171,37.792881571511,-122.40012060277,$
PmIsfHFgjcxY5tWmsZKndA,Fueling Station,4.5,160,"2436 Polk St San Francisco, CA 94109",+14157570464,37.79933,-122.42215,$
F4YgPOvuCClXTwB9PJk8Qg,Black Sugar,4.5,671,"320 O'Farrell St San Francisco, CA 94102",+14155212022,37.78642,-122.41032,N/A
hWE2CDphzZ3nXlwv3Uk6Og,Philz Coffee,4.5,1400,"201 Berry St San Francisco, CA 94158",+14158759943,37.7756640166767,-122.39345180371,$
X1XdSgiNBAEwMrC7WeLO2w,Mercury Cafe,4.0,308,"201 Octavia Blvd San Francisco, CA 94102",+14152527855,37.7740082144737,-122.424194812775,$
maX2pNMeAroeVGbcCNkTcg,Faye's Coffee,4.5,175,"3614 18th St San Francisco, CA 94110",+14155220434,37.7616598,-122.4242662,$
54EOuXs22MK_QYVNgBL-4A,Joy's Place,4.0,618,"611 Post St San Francisco, CA 94109",+14158171391,37.78764,-122.41197,$
dsIfVh_naTmaB-LuBfzg5g,85°C Bakery Cafe,3.0,99,"3251 20th Ave Ste 158 San Francisco, CA 94132",+14156834938,37.72856,-122.47688,$
aB_jimByFRPpde3LC13ucw,Bazaar Cafe,4.0,308,"5927 California St San Francisco, CA 94121",+14158315620,37.7840081602335,-122.481084465981,$
2YTKy7LN5jZVF-xz1C0AGg,Réveille Coffee Co. Truck,4.5,75,"768 Sansome St San Francisco, CA 94111",+14157896258,37.797361,-122.401649,$$
PrlH7YcQ22m9DyuWbxJjMA,Anthony's Cookies,4.5,1665,"1417 Valencia St San Francisco, CA 94110",+14156559834,37.7502,-122.42013,$
das8OgnsjMW1n7ZmQdr_Ww,TRANSIT,3.5,88,"215 Lincoln Blvd San Francisco, CA 94129",+14155614435,37.8015004,-122.4556809,$$
4vqUi0Zrhj6D7nAaMZz-OQ,B on the Go,4.0,179,"2794 California St San Francisco, CA 94115",+14155897112,37.7882800064693,-122.440317458614,$$
6ZaqeFEkbArybiCf3yAOlQ,Rolling Out,4.5,386,"1722 Taraval St San Francisco, CA 94116",+14155136054,37.7429,-122.48468,$
9OKUEFQiWLntDYhpwCaJcg,Fillmore Bakeshop,4.0,515,"1890 Fillmore St San Francisco, CA 94115",+14159230711,37.7868556181609,-122.433357532036,$$
ddjCF9cJbEnVorV1h__dcg,Peet's Coffee,4.0,78,"310 Broderick St San Francisco, CA 94107",+14155938830,37.77343,-122.43875,$
HM6okN9e4bXwCHohplv-aw,Dynamo Donut & Coffee,4.0,115,"110 Yacht Rd San Francisco, CA 94123",+14159201978,37.8058479492332,-122.447381592305,$
mRLqEeBs7EPd8mH6kOAFKA,Noe Valley Bakery - West Portal,4.0,147,"28 West Portal Ave San Francisco, CA 94127",+14155928785,37.74067,-122.46641,$$
9TyCT7Ck2mCsL_xJqGm_ug,Love Patisserie & More,5.0,22,"2200 Mission St San Francisco, CA 94110",+14159527675,37.7616816,-122.4195756,N/A
U2lbKxfjKbqGPsvsYPAyLA,Beloved Cafe,4.5,254,"3338 24th St San Francisco, CA 94110",+14158006546,37.75235,-122.41925,$$
UIcdz05fzrU-F-V3BqEp5g,Royal Jamaica Trading Company,4.5,7,"1500 Taylor St San Francisco, CA 94133",+14153747783,37.79622,-122.41316,$$$
x3F6hYDfEW3KrFSgplAETw,Peet's Coffee,4.0,33,"919 Cole St San Francisco, CA 94117",+14152131991,37.7656017,-122.4499419,$
BOq0fMStc38z6GhRJ8bX8g,Nespresso Boutique at Bloomingdales,4.5,71,"845 Market St Concourse Level San Francisco, CA 94103",+14153150136,37.783809,-122.405604,$$
qpgqNFum3rtlnjpd85xMHg,Red Bay Coffee Public Roastery,5.0,146,"3098 E 10th St Oakland, CA 94601",+15102691032,37.77634,-122.22834,$
OHGqBpCKa54JN-M20C6C2w,Artís Coffee,4.0,566,"1717B 4th St Berkeley, CA 94710",+15108981104,37.8715768654214,-122.300850833368,$$
AMhmArFJ0IAeknI1mDE6ew,Bacon Bacon,4.0,426,"205 A Frederick St San Francisco, CA 94117",+14152184347,37.76705,-122.44662,$
A_2m0mcKEqOJ1XsqUbzUIg,Amitis Café,4.5,167,"800 Masonic Ave San Francisco, CA 94117",+14155632828,37.77384,-122.44583,$$
OA_cNOXj_h0BT_nbbE8H7Q,Cumaica Coffee,3.5,86,"4726 Mission St San Francisco, CA 94112",+14153371500,37.72271,-122.43665,$
hSKammh8iYHvama9BY4VMg,La Boulangerie De San Francisco - Hayes Valley,3.0,179,"500 Hayes St San Francisco, CA 94102",+14154004451,37.7766957270627,-122.424721368639,$$
sSiUcnbwPQ4ssHY3EMV0Fw,Matcha Cafe Maiko,4.5,883,"1581 Webster St San Francisco, CA 94115",+14157570919,37.785051,-122.432095,$
4E4Q6H2y-7MLHUH_PWMeiQ,illy Caffè,4.0,165,"220 Montgomery St Ste 148 San Francisco, CA 94104",+14159142300,37.79131,-122.40199,$
gB5RedZ_SrOGz_d3mGLT6w,"La Boulangerie de San Francisco, Noe",3.0,64,"3898 24th St San Francisco, CA 94114",+14157963830,37.75181,-122.42938,$$
CfU_8BIc6SX7lhDYAB9Xkw,Liguria Bakery,4.5,711,"1700 Stockton St San Francisco, CA 94133",+14154213786,37.80153,-122.40916,$
FqtIyAv_Nsm2oackGCTeiw,It's A Grind Coffee House,4.5,76,"2521 Seminary Ave Ste 3 Oakland, CA 94605",+15108789819,37.771095,-122.1912724,N/A
C1KKLpAVfOH4PsTHHWsAqQ,Ap's Cafe,5.0,5,"4108 24th St San Francisco, CA 94114",+14156421316,37.7513241022825,-122.434401288629,N/A
EtVuNSP3apRD9o4tMG2XBA,Yonkers Cafe,4.5,186,"3815 Noriega St San Francisco, CA 94122",+14153794459,37.75277,-122.50458,$
s6q9cud0g-oj9NxvQCtfjQ,Doggie Diner Heads,4.5,8,"Treasure Island San Francisco, CA 94130",,37.82489,-122.37087,$
l7hu0YluMciTyZI9H3Llyw,Fog Lifter Cafe,3.5,353,"1901 Ocean Ave San Francisco, CA 94127",+14153494543,37.72503,-122.4625,$
UYNswbdsQ5OvwnyY9esxCw,Wooden Spoon,4.5,340,"2172 Market St San Francisco, CA 94114",+14159463005,37.7666182758937,-122.430262778253,$$
OSZ6bFeCcv4PvUmvuiMEJw,Little Sweet,4.0,601,"3836 Geary Blvd San Francisco, CA 94118",+14157026763,37.781425,-122.4608022,$
iRmdKzcbdFLIp3s9e4xrHA,Java Beach at the Zoo,4.0,494,"2650 Sloat Blvd San Francisco, CA 94116",+14157312965,37.7356872558594,-122.502906799316,$
_IegG_kUICoYxyv3HuT27A,Eleven Eleven,5.0,1,"1977 Union St B San Francisco, CA 94123",,37.797413,-122.431548,N/A
1InzuOHzYG3SzrYjcp8E7g,Starbucks,3.5,64,"350 Parnassus St San Francisco, CA 94117",+14156656406,37.7641418236607,-122.456377,$
nL40RmgMcFjyAX-QwJ8klw,L'acajou Bakery & Cafe,4.0,335,"498 9th St San Francisco, CA 94103",+14156263683,37.7713164,-122.4087526,$
J5UfRQ4Bn_QF2RsJeUkyDQ,Urbean,4.0,232,"142 McAllister St San Francisco, CA 94102",+14152550208,37.7809433,-122.4144406,$
eCml9j_cBg6evI2CJkR46g,BiteUnite,4.5,37,"600 S Van Ness Ave San Francisco, CA 94110",+14156243083,37.7633584,-122.4176856,$$
Wx3x6xOLkxWxwXXFrI01zA,Vinyl Coffee & Wine Bar,3.5,301,"359 Divisadero St San Francisco, CA 94117",+14156214132,37.7727280386734,-122.437399108456,$$
g2ckHUzTfnsFR_pW0Ism7g,Boba Guys,4.0,106,"836 Divisadero St San Francisco, CA 94117",+14159672622,37.7774106,-122.4381031,$
ipsjrKLs8gmjIJsbwfEtTg,The Interval At Long Now,4.0,279,"2 Marina Blvd Bldg A Fort Mason Centre San Francisco, CA 94123",+14154969187,37.8066279497009,-122.432121163476,$$
JZ1CWLfJ1cm6fuHkU2vo-g,Manny's,4.0,147,"3092 16th St San Francisco, CA 94103",+14152037122,37.76517,-122.42159,$
-0Xwbv86GnwXOS26cM6Gbw,Bob's Donut,4.5,19,"601 Baker St San Francisco, CA 94117",,37.776539,-122.441854,$
JFgEWw7Jfr89M5WmqzVXGA,Merchant Roots,4.5,30,"1365 Fillmore St San Francisco, CA 94115",+15305747365,37.7821549873325,-122.43250194937,$$
4-ra3RxOy1PpvnaK49dy8w,Eight AM,4.5,1280,"1323 Columbus Ave San Francisco, CA 94133",+14152924888,37.806251,-122.419204,$$
6dpogM9AfMtNcXswIDJ1sg,Cafe Reverie,4.0,561,"848 Cole St San Francisco, CA 94117",+14152420200,37.766169,-122.449763,$$
bL2DTWLj-C96JdHEdtpzog,Hermanos Coffee + Juice,4.5,46,"650 California St San Francisco, CA 94108",+14153228073,37.79293,-122.4052,$$
Gd0z8auKmGVN4wV2-F3IWw,Equator Coffees,4.0,74,"240 Magnolia Ave Larkspur, CA 94939",+14157205701,37.9328,-122.53582,$$
_UkR5msuiMeuUCT5xslUNw,Cafe X Market,4.0,100,"578 Market St San Francisco, CA 94104",+14152956021,37.78962,-122.40144,$
0XpZ4HUAkogn7kktGOZQvA,Macha Cafe,4.0,153,"1355 Sutter St San Francisco, CA 94109",+14155638079,37.78714,-122.42287,$
i2VhtC1JkV_sZOA4urd1ng,Piccino,4.0,1403,"1001 Minnesota St San Francisco, CA 94107",+14158244224,37.75762,-122.38992,$$
6Y7JiN6FVljty-c-Kd-rpA,Event Espresso Catering,5.0,1,"San Francisco, CA 94104",+17048071864,37.79106,-122.40175,N/A
mx-80lTE5Yiuj2W3Xrz1ug,Aroma Cafe,4.0,235,"1122 4th St San Rafael, CA 94901",+14154594340,37.9734764099121,-122.528755187988,$$
ejAOLv4S6-s3BOwTiPZQ7Q,Cavalli Cafe,4.0,384,"1441 Stockton St San Francisco, CA 94133",+14154214219,37.7991,-122.40917,$
JkeCRHzlHZWI95vB5fnPyA,6th and B,4.0,212,"452 Balboa St San Francisco, CA 94118",+14157539138,37.77745,-122.46374,$$
ABlyBY_rw6X6rqMIKaXBHA,Little Swan Bakery Cafe,4.0,172,"1249 Stockton St San Francisco, CA 94133",+14159861606,37.7973,-122.40881,$
u1XwNjU75q7q6JHm7iQTvA,Kahnfections,4.5,94,"3321 20th St San Francisco, CA 94110",+14155253328,37.75873,-122.41502,$$
g2QJodH7bcdl-btCWfP8cQ,Darwin Cafe,4.0,592,"212 Ritch St San Francisco, CA 94107",+14158008668,37.7806091,-122.3961443,$$
zl3T_yp84y84hnSbSO9Uag,Antigua Coffee Shop,4.0,410,"437A Grand Ave South San Francisco, CA 94080",+16507416261,37.65572,-122.41404,$$
T1bTak-TEuU0_RUopR8a1w,Wholesome Bakery,3.5,276,"299 Divisadero St San Francisco, CA 94117",+14153435414,37.772099,-122.437389,$
qW8Bh8jpS9Xc-UV28F9jBw,Hayes Valley Bakeworks,4.0,147,"550 Gough St San Francisco, CA 94102",+14158642688,37.77842,-122.42292,$
b-P_vrK4Of94jbB0r5rjkQ,Café Valor,4.5,11,"401 Van Ness Ave San Francisco War Memorial & Performing Arts Center San Francisco, CA 94102",+14155783755,37.779212,-122.42063,N/A
gGc6bHkJDGqVwrgPxsusiw,Drip Coffee,4.0,2,"450 Stanyan St Fl 1 San Francisco, CA 94117",,37.77368,-122.45426,N/A
MYHyNSuTKus_F7F0euPgsg,Bravado - Italian Coffee Bar Lounge,4.0,311,"170 King St San Francisco, CA 94107",+14159571100,37.7787871621352,-122.391337761795,$$
qCNfOc-4Sd0Q0Ta37PdwbA,Red Door Coffee,4.0,75,"505 Howard St San Francisco, CA 94105",+14159741719,37.7880967519643,-122.396264970303,$
IU26nUYu6-BS6z5LXpNAxQ,Starbucks,3.0,154,"1390 Market St Ste 107 San Francisco, CA 94102",+14158638332,37.7771348,-122.417348,$
5o24fe7v2Z0dgt3TCkZ1ww,Milkbean,4.5,254,"881 Post St San Francisco, CA 94109",+14158668811,37.7871613,-122.4162122,$
b2t7HU5ajDh-V0394bzAIA,Cafeto Coffee Shop,4.5,111,"111 Richland Ave San Francisco, CA 94110",+14159709090,37.7361456828819,-122.424239996237,$
43yq6WbtX0t46yCVO82A1Q,Peet's Coffee,3.5,119,"3419 California St San Francisco, CA 94118",+14152218506,37.786633,-122.45047,$
9KWOjTaw5aRWOl3Uyr-VIQ,The Game Parlour,4.5,226,"1342 Irving St San Francisco, CA 94122",+14155718569,37.76399,-122.47243,$$
0tiSST3GCwTa7eqY6yTlHQ,Tastebuds,4.0,106,"600 5th Ave San Francisco, CA 94118",+14156689298,37.77715801324,-122.46266875416,$$
aYljtgy2XJJkp3fizEjghg,Simple Pleasures Coffee Roasting,4.5,2,"3422 Balboa St San Francisco, CA 94121",+14153868084,37.77603,-122.49559,$$
-1DDYnGTtRSV8ushaAN8GQ,Wrecking Ball Coffee Roasters - Berkeley,3.0,35,"1600 Shattuck Ave Ste 100 Berkeley, CA 94709",,37.87811,-122.269401,N/A
aQuwkkUS_S52ga0PxiOIag,Atlas Cafe,4.0,793,"3049 20th St San Francisco, CA 94110",+14156481047,37.75886,-122.4114,$$
qJktg3hyKYNSGTaCz_TTfw,Nourish Cafe,4.0,405,"189 6th Ave San Francisco, CA 94118",+14155718780,37.7852478,-122.4647598,$$
r8aamLiwKXor_UkwZEeQPg,Vive La Tarte,4.0,85,"166 The Embarcadero Ste 50/ Kiosk 1 San Francisco, CA 94105",,37.7957848137993,-122.393996579795,$$
vdVMVGyJRitqgTEXDcZViw,Farm and Flour,4.5,258,"700 1st St Benicia, CA 94510",+17077505345,38.04977,-122.1583,N/A
50zXDc6IqJl7hTho6Xb7bQ,Little Sweet,3.5,76,"1253 9th Ave San Francisco, CA 94122",+14153403373,37.76493,-122.46665,$$
yBwejh5N36gw4DOt49t3wg,It's Tops Coffee Shop,3.5,478,"1801 Market St San Francisco, CA 94103",+14154316395,37.7714306,-122.4236388,$$
WZED7bVvzaJ7BmcPAb_gWw,Jolt 'n Bolt,4.0,101,"2325 3rd St Unit 100 San Francisco, CA 94107",+14158638761,37.7600812094141,-122.387985130775,$
QGFom61Fv-Jxou4cFXg2rw,Warming Hut Cafe,3.5,253,"983 Marine Dr San Francisco, CA 94129",+14155613042,37.8083908117365,-122.471031972642,$$
xlTT43ntj_BCl2KKtrlk5w,Local Cafe,4.5,23,"33 Kearny St San Francisco, CA 94108",+14158749868,37.78826,-122.40386,$$
pzM5uIlfV3r3dL22EHdpVA,Chantal Guillon,4.5,194,"1309 Howard St San Francisco, CA 94103",+14155121020,37.774694,-122.413225,$$
C8hJIhdP8Zn1F6QGt8yyUg,Chump Chai,5.0,8,"San Francisco, CA 94115",+14152128339,37.777661,-122.443784,N/A
SZs2L7N1tNSsFEdbdEvcdw,Crostini & Java,5.0,147,"899 Hyde St San Francisco, CA 94109",+14158729226,37.78892,-122.41714,$$
fkoRYeplGNR1bi_cem5n6w,Peet's Coffee,4.0,138,"5201 Geary Blvd San Francisco, CA 94118",+14155922200,37.7802467346191,-122.47526550293,$
xfGxyVapMNlAlqQULvyG5Q,Cafe Seventy8,4.5,153,"78 29th St San Francisco, CA 94110",+14159702233,37.7440758,-122.4223022,$
vLJIuMyrw96Tz1YHrr4YTg,Temo Cafe,4.5,143,"3000 24th St San Francisco, CA 94110",+14158292822,37.7527885,-122.4122009,$
frA_PGrbHADJUmXvRfb9rQ,Bebebar,4.0,225,"3809 18th St San Francisco, CA 94114",+14158749896,37.7612142957934,-122.428665992271,$$
cP4hJdL5MiRyHEAbM0KO_g,Teahouse,4.5,27,"Golden Gate Park San Francisco, CA 94118",,37.7703173336049,-122.469726414681,$$
T5_ulqpuMDVyITg479YL-Q,Planet Cafe,5.0,23,"244 Gough St San Francisco, CA 94102",+14155534595,37.7757099,-122.42257,$$
KVS0OdANm72la3ZC-3VZHw,Cafe RX,4.0,118,"1013 Torney Ave Thoreau Center in the Presidio San Francisco, CA 94129",+14155612273,37.7998597379468,-122.451773239302,$$
LFcFekWrib2WV0xTqLaZVQ,The Family Room,5.0,23,"644 Hyde Street San Francisco, CA 94109",,37.786707009022,-122.416382208467,$
j3RTRyipsMd_lYvrBYnX7Q,Madhouse Coffee,4.0,132,"402 Visitacion Ave Brisbane, CA 94005",+14154674003,37.68163,-122.404007,$
oFBA0gy9tyD89lmlLmb-Og,Muddy Waters Coffee House,3.0,300,"521 Valencia St San Francisco, CA 94110",+14158638006,37.7645,-122.42158,$
G9Slc9RL25KslNMqGH_mMw,Mints & Honey,4.5,495,"1524 El Camino Real San Carlos, CA 94070",+16505540515,37.49613,-122.2477,$$
UQIYqeHl3BxQCCHbFb8_yA,The Local,4.0,110,"1333 Park St Alameda, CA 94501",+15105232116,37.7635764,-122.2435495,$
L-P-Vqy45mTOeYUdLjyMfQ,Lotta's Bakery,4.5,213,"1720 Polk St San Francisco, CA 94109",+14153599039,37.7927627563477,-122.420837402344,$
SfFrwZKN-lDMwBmCEJjjVA,Amausaan Uji Matcha,4.0,202,"354 Clement St San Francisco, CA 94118",+14156910536,37.78325,-122.46315,$
HdZLo3v4zNVpzx1CQjg5MA,Capital One Café,4.5,348,"101 Post St San Francisco, CA 94108",+14152484920,37.788722,-122.403917,$
QaFQ1eVHKaKeGTQphOXxPg,The Early Bird Coffee,4.0,83,"926 B St The Dirty Bird Lounge Hayward, CA 94541",+15104178739,37.67258,-122.08372,N/A
pif9xfz_SJAh9g9-qbVYKg,Swell Cream & Coffee,4.0,4,"50 Phelan Avenue Visual Art San Francisco, CA 94112",+16502603552,37.727361,-122.450642,N/A
krRTQ00gEhUJYOgr15In-A,Coffee Roma,5.0,1,"371 30th St Ste C100 Oakland, CA 94609",+15104529210,37.81866,-122.26411,N/A
mjih0yEQhxnoZU5xxnR21w,Starbucks,3.5,178,"4094 18th St San Francisco, CA 94114",+14156266263,37.761019,-122.434666,$
2IgUNNcCoUcmhiv5ei-Vlw,Plain Jane,4.5,190,"1000 Guerrero St San Francisco, CA 94110",+14156545270,37.75497,-122.4235,$$
7nExU7LQ_tQWS2LXUB-ivA,Johnny Doughnuts,3.5,152,"392 Fulton St San Francisco, CA 94102",+14154005078,37.7789031,-122.4231225,$$
Ab4j8pgscHwV_I6ouuoiLQ,How Ya Bean,5.0,59,"San Francisco, CA 94103",+14159203407,37.773969,-122.410448,$$
aVskw5NKrs7ibAQ54E_bZw,U :Dessert Story,4.5,1282,"3489 16th St San Francisco, CA 94114",+14157963633,37.7642642124321,-122.430517340788,$$
sGXR_6KDm7svEc0dPzt1Vw,Cafe Diem,4.5,12,"2333 Buchanan St San Francisco, CA 94115",,37.790615,-122.431434,$
d2pGXHPCt4bp2inO6CPBCA,Butter Love Bakeshop,4.5,154,"3717 Balboa St San Francisco, CA 94121",+14157026344,37.7754,-122.49873,$$
8MTMGQc410dLxOMgLINxdw,Java On Ocean Coffee House,3.5,440,"1700 Ocean Ave San Francisco, CA 94112",+14153336075,37.72498,-122.46019,$
DyXoC_NhJW0Xx5j_OPQRHQ,Schubert's Bakery,4.5,1665,"521 Clement St San Francisco, CA 94118",+14157521580,37.78267,-122.46493,$$
hqm2vBrJHMzytG1RK4xEzw,Royal Ground Coffee,4.0,107,"2342 Clement St San Francisco, CA 94121",+14153875282,37.78228,-122.48453,$
zihcNcXX7hqcbF-WawxHhA,Philz Coffee,4.0,136,"403 Corte Madera Town Ctr Corte Madera, CA 94925",+14154962024,37.926065,-122.517321,$$
-BSKDVVofzSpCBHz46EqjQ,The Storehouse,5.0,11,"451 Galvez Ave San Francisco, CA 94124",+14156712050,37.7285024750836,-122.366742301638,$$
rtid6l1A9oKzGZ1PrZdI2w,Goody Cafe,4.0,63,"Fort Mason Ctr Bldg C San Francisco, CA 94123",+15109184026,37.806605264381,-122.431383132935,$
BMzrow5NMGQifKMLpyxAOQ,Peet's Coffee,3.5,172,"2257 Market St San Francisco, CA 94114",+14156266416,37.76476,-122.43183,$
k7u18ZGlaUTYjBCmrUc3Pg,Tilden Cafe,4.5,46,"345 Taylor St San Francisco, CA 94102",+14156732332,37.78557,-122.4116,$
SOZuFpNqQTD5XprPD5XeVw,Cafe Madeleine,4.0,480,"300 California St San Francisco, CA 94104",+14153623332,37.79344,-122.40034,$$
7EvFw4sbA7K5NNZ3hK6btg,Enough Tea & Coffee,4.5,120,"49 Kearny St San Francisco, CA 94108",,37.78858,-122.40384,$
rBwyayyqFMD8chqenrRxag,Golden Coffee Shop,4.0,480,"901 Sutter St San Francisco, CA 94109",+14159220537,37.7883145538178,-122.415342775978,$
1XD4crx8nzp20vZlEk4Zog,The Strand Cafe,4.0,4,"1127 Market St San Francisco, CA 94103",+14154392332,37.77963,-122.41289,N/A
6o0GBaGjWfBkAWFU0Qb6Hw,Boba Guys,4.0,496,"8 Octavia St San Francisco, CA 94102",+14159672622,37.772945,-122.423476,$
p2UxlDCm7aIP9jpK6g1e5A,Cafe La Taza,4.0,368,"2475 Mission St San Francisco, CA 94110",+14158247717,37.75748,-122.41859,$$
aGs2EGaL6l_u0BOjTqXzuA,Starbucks,4.0,124,"675 Portola Dr San Francisco, CA 94127",+14156829477,37.744631,-122.452709,$
GXu3PD4IPsxIHpo011aydg,Bob's Donut & Pastry Shop,4.5,2975,"1621 Polk St San Francisco, CA 94109",+14157763141,37.791883,-122.4212,$
LyLkIsNh_JVy7vhbDey93g,Royal Ground Coffee,3.5,190,"5301 Geary Blvd San Francisco, CA 94121",+14157515282,37.780314,-122.476362,$
x2tHVNB1f6zN_dWz5CbimA,Morning Wood,4.0,1060,"260 El Camino Real San Bruno, CA 94066",,37.61882,-122.40924,$$
knave3dNTGb-EmczwnmBVQ,1608 Bistro,4.0,244,"1608 Bush St San Francisco, CA 94109",+14153461608,37.7883672,-122.4238901,$$
7c68uq66UOa-8eisi77k5w,Biscoff Coffee Corner,3.5,232,"39 Pier Ste 213 San Francisco, CA 94133",+14153939554,37.8083861,-122.410042472184,$
IqgazewkkBXLLLmEkLJFyg,Toast Eatery,3.5,253,"160 W Portal Ave San Francisco, CA 94127",+14155662000,37.73923,-122.46787,$$
uEeWn6sPq-giWvfE9uhQ7A,Dottie's True Blue Cafe,4.0,4493,"28 6th St San Francisco, CA 94103",+14152549949,37.7817050429594,-122.409839630127,$$
P4QhfAOf1MuT4gRo5zfkRA,Starbucks,2.5,179,"744 Irving St San Francisco, CA 94122",+14156648340,37.764205,-122.466024,$
BoBxY7PkBBJ4qyoEEhziGQ,Pineapple Bistro & Bar,4.5,60,"580 Geary St San Francisco, CA 94102",+14154412700,37.78695,-122.41298,$$
Q4o18t-lk70kqY6raBdlJw,Tea & Others,4.5,44,"250 Divisadero St San Francisco, CA 94117",+14158644920,37.77152,-122.43688,$$
vugLIRqnbjsuQdX0ai4_tQ,The Crown: Royal Coffee Lab & Tasting Room,5.0,29,"2523 Broadway Oakland, CA 94612",+15106524256,37.81451,-122.26523,N/A
eVShBi46nTGydnr-9T0RNQ,Cafe X Metreon,4.5,166,"135 4th St San Francisco, CA 94103",+14153696000,37.7840638,-122.4034835,$
7ka8x5bt-alAPasCM9--_A,The Grind Cafe,5.0,3,"402 Tuolumne St Vallejo, CA 94590",+17075638320,38.103025,-122.23809,N/A
mSOJsEAHx5vGhtNdhuvv0Q,Sunshine Cafe,5.0,24,"100 Bush St Ste 110 San Francisco, CA 94104",+14157570328,37.79156,-122.39996,N/A
R-kgHjSCkLXM3NqXMR61fQ,Ella's American Kitchen,3.5,1052,"500 Presidio Ave San Francisco, CA 94115",+14154415669,37.787131,-122.446581,$$
jGI9R4VXCysx0_A8dwJ2DQ,La Capra,3.5,73,"360 3rd St San Francisco, CA 94107",+14155002016,37.782933,-122.398375,$$
NGOQ-1gJT6CR7CRFwZTNkA,Grand Paradé Coffee,4.0,2,"1390 Market St Ste 200 San Francisco, CA 94102",+15107300447,37.77675,-122.41754,$$
aigwT2s7rJJ3Kjw6L-5Fzg,Project Juice,4.0,115,"364 Hayes St San Francisco, CA 94102",+14154233414,37.77723,-122.42236,$$
6WGlm2tCjD3Dsy5Z5O0XQg,Black Jet Baking,4.5,105,"833 Cortland Ave San Francisco, CA 94110",+14158293905,37.7391011,-122.4141424,$$
lvoKIKQ8zD4ZvcbUmImrQg,Taylor Street Coffee Shop,4.0,1175,"375 Taylor St San Francisco, CA 94102",+14155674031,37.7856803,-122.4114826,$$
eteoYBIl7Bcay0MokVYzig,Coffee Stand,4.5,5,"101 Calle Del Mar Stinson Beach, CA 94970",,37.89878,-122.6399,N/A
eMdBVB7uVVc3B9Om8Y7Giw,Ritual Coffee Catering,5.0,2,"San Francisco, CA 94103",+14156411024,37.7744789123535,-122.409164428711,N/A
qQ7_k88OxwBX_yJCzhRizw,Sightglass Coffee Stand,4.0,33,"1 Ferry Building San Francisco, CA 94111",+14158611313,37.7946507,-122.3998262,$$
tE1iZfdyB6UwqupnQ5a1Gw,L's Caffe,4.5,220,"2871 24th St San Francisco, CA 94110",+14152060274,37.7525444030762,-122.40958404541,$
dFMuljhF5iN1ugqLlAwSHw,Rosalind Bakery,4.5,53,"450 Manor Plz Pacifica, CA 94044",+16508988636,37.65082,-122.49183,$$
TULuRLcfi8eGQ9QBDjJJbQ,illy Caffè,4.5,34,"90 New Montgomery St San Francisco, CA 94105",+14158721290,37.7874723,-122.4007545,$$
AJUBHUHPbneSaAYR9hEZ3g,Gallery Cafe,4.0,299,"1200 Mason St San Francisco, CA 94108",+14152969932,37.79474,-122.41118,$
HTVGqdt-9_j5J2U624l79Q,Picnix Bistro,4.0,110,"3872 Sacramento St San Francisco, CA 94118",+14157512255,37.78722,-122.45638,$
01PEEGsmzViln0LKbQNG2Q,Daily Driver,3.5,188,"2535 3rd St San Francisco, CA 94107",+14158523535,37.75756,-122.38782,N/A
n_N_aY_XGhvvVjmXg7XjEA,Salty's,5.0,52,"748 Van Ness Ave San Francisco, CA 94102",+14154004180,37.7826302,-122.4205352,N/A
KXJ8jFVrHEUGh9EXtUwmDw,Moka Coffee,3.5,165,"1605 Polk St San Francisco, CA 94109",+14157491731,37.7917143556544,-122.421063248315,$
0100LAmvjZPFjEPswwrDBQ,Benkyodo Co,4.5,980,"1747 Buchanan St San Francisco, CA 94115",+14159221244,37.786366,-122.43011,$
JR9BjHRyN6Ja3g8P7S6MIw,Pacific Java Cafe,4.0,86,"450 Dondee St Ste 6 Pacifica, CA 94044",+16507381222,37.60997,-122.49579,$
6rHNSpeKQ40JNAc-RGzBtA,Weaver's Coffee & Tea,4.5,149,"40 Louise St San Rafael, CA 94901",+18003281178,37.96234,-122.507865,$
F0PIkXxnUCAvyCwXZjvIEw,Le Marais Bakery,3.5,47,"1138 Sutter St San Francisco, CA 94109",+14153599801,37.78803,-122.41912,$$
2oRvvIAnDjxCN01uhTUsGg,La Capra,3.5,141,"50 Fremont St Ste 110 San Francisco, CA 94105",+14158729275,37.7905197,-122.3971863,$$
JaU2R-3AxEnrsB7iDC55YQ,Coffee Roo,5.0,20,"1251 S Eliseo Dr Greenbrae, CA 94904",+14152993211,37.94381,-122.53633,$
6ynZSdeV_8We1d9gzx93cQ,Cafe Franco,4.5,63,"240 Fort Mason Bldg 240 San Francisco, CA 94123",+14157712268,37.807185,-122.428764,$
UidcM5xW7MXi5EYG3JPueg,Julie's Coffee and Tea Garden,4.0,656,"1223 Park St Alameda, CA 94501",+15108652385,37.761575001943,-122.245267284944,$$
yn5gA62ekL-TzKBBI_rq-A,Boba Guys,4.0,1954,"429 Stockton St San Francisco, CA 94108",+14159672622,37.7899434017563,-122.407306303981,$
HhAmBwTYq_MXbOLzypRQjQ,Cafe XO,3.5,233,"1799 Church St San Francisco, CA 94131",+14158263535,37.74235,-122.42634,$
7vgAe81KAhwJOF7srazffA,It's A Grind Coffee House,4.0,65,"1933 Davis St San Leandro, CA 94577",+15102278160,37.7152997,-122.179217,$$
VZALzk28BUkiycGQb8Lw0A,Brew A Bean Cafe,5.0,1,"517 O'Farrell St San Francisco, CA 94102",+14157962569,37.785555,-122.413309,N/A
fhbqsC93Zgsi37qMnB7s5w,RS94109,4.5,26,"835 Larkin St San Francisco, CA 94109",+18887794109,37.7857493,-122.4183791,$
Q7_I2n1Fbza6uyDScaKyOw,Ambrosia Bakery,4.0,533,"2605 Ocean Ave San Francisco, CA 94132",+14153345305,37.73151,-122.47348,$
HBOFoMykzaVUBYMPOcYflg,Les Gourmands Bakery,4.5,270,"280 5th St San Francisco, CA 94103",+14158729461,37.7803454361987,-122.403747839209,$$
yyi2GpG_p7TX7XAq_eHSZA,Boudin Bakery & Cafe,4.0,3696,"160 Jefferson St Lower Level San Francisco, CA 94133",+14159281849,37.8084100293993,-122.41507940311,$$
x7EZl_Lk23pukkrw5cnUqw,Moschetti,5.0,146,"11 6th St Vallejo, CA 94590",+17075569000,38.09652,-122.24677,$
eSvjUGigP39hoDvfSyt-0Q,1428 HAIGHT Patio Cafe & Crepery,4.0,371,"1428 Haight St San Francisco, CA 94117",+14158648484,37.7701485211239,-122.445868540619,$$
GAm5jocnW-NAe-vR_JAWew,Choux,4.0,204,"248 Fillmore St San Francisco, CA 94117",+14157570722,37.7718525471645,-122.4302821462,$$
GSyWxUqrzYZ4reusRgR4LA,Sweet Passion Bakery,4.0,143,"3020 Taraval St San Francisco, CA 94116",+14156610928,37.7420825511217,-122.498513460159,$
pv5-sxnpf1K0nGfuUWtD1g,Crown & Crumpet Tea Stop Cafe,4.0,667,"1746 Post St San Francisco, CA 94115",+14157714252,37.785756,-122.430597,$$
v9T4uGSaOzRqbu8iXeSUzQ,Grindstone Coffee,4.0,32,"2175 S El Camino Real San Mateo, CA 94403",+16504586556,37.5465941630351,-122.30768812071,$
M6oFiCaFbbpwSE1ky3IddA,Dandelion Chocolate - 16th St Factory & Bloom Chocolate Salon,4.5,147,"2600 16th St (entrance on Alabama St) San Francisco, CA 94103",+14153490942,37.7657671,-122.4127906,$$
50hc7XfRPjRG7E_RXRRBgg,Early To Rise,5.0,167,"1098 Jackson St San Francisco, CA 94133",+14159171098,37.7953932,-122.4131214,$$$
iPJfnQ5gI0JIrO_hxURWSQ,Cafe In,4.0,48,"855A Bryant St San Francisco, CA 94103",+14156605986,37.77492,-122.40355,$
0JQhSqNXG-ddow3BWrRK_A,Third Culture Bakery,4.0,367,"2701 Eighth St Ste 101 Berkeley, CA 94710",,37.8567843216718,-122.291685010315,$
yWmRZMJ3w9M1ua5rli9fKw,Philz Coffee,4.5,590,"113 S B St San Mateo, CA 94401",+16509311770,37.56697,-122.32359,$
w83ZWz4tEBTIct6l8GS7TQ,Sweet Things,4.0,147,"3585 California St Cal-Mart Grocery Store San Francisco, CA 94118",+14152218583,37.78608,-122.45275,$$
U25d7RZPlu12UxXHZModkA,Mercado Brasil,4.0,75,"1252 Valencia St San Francisco, CA 94110",+14156413066,37.75281,-122.42101,$$
vVvJNzJbwmRA2h97TBy1Yw,Allegro Coffee Bar,3.5,57,"1025 Gilman St Berkeley, CA 94710",+15108098293,37.88065,-122.29767,$$
Nh7YDXWeMocrsk3E6sVzfQ,Mochill Mochi Donut,4.5,312,"1610 Geary Blvd San Francisco, CA 94115",,37.78505544639,-122.430521808565,N/A
TTE4bhJAxT7VoItXHxuVRw,Starbucks,3.0,95,"1750 Divisadero St San Francisco, CA 94115",+14153467193,37.785936,-122.439858,$
DlLsw9bJMJ-YdnrUp2G7mw,Universal Cafe,4.0,1349,"2814 19th St San Francisco, CA 94110",+14158214608,37.76062,-122.41064,$$
Hl3vmBUyKPFKRyZb-HAxsA,Manitas Cafe,4.5,89,"2078 Hayes St San Francisco, CA 94117",+14152135566,37.77351,-122.45071,$$
I5o_ztIVXucEuTYrp2sOwg,Barrelista Coffee House,4.5,450,"736 Main St Martinez, CA 94553",,38.01744,-122.1358,$
3vMJrQD9qKvcXjKUcWRsFw,Las Hijas Del Gallo Bakery,4.5,120,"615 Linden Ave South San Francisco, CA 94080",+16505894329,37.65867,-122.40926,$
uXfKnbkDgtIPKw48MeQdKA,Chloe's Cafe,4.0,987,"1399 Church St San Francisco, CA 94114",+14156484116,37.7486351154446,-122.42695521362,$$
7J0g8-Cf9eOG52CZcSvHDA,Dunkin',2.5,254,"180 S Airport Blvd South San Francisco, CA 94080",+16507429101,37.6493899,-122.40609,$
_ks6hcYTn_xBg2dwm9_ZDw,Hookt Mini Doughnuts,4.5,49,"1379 4th St San Francisco, CA 94158",+14158906577,37.771073,-122.390689,$
yLhfEOwew6NMXJdVENX2Wg,Creighton's American Bakery,3.5,69,"673 Portola Dr San Francisco, CA 94127",+14157530750,37.74455,-122.45256,$
vnix7vi9At8rrGvny8h4Kg,Derm Restaurant,4.5,220,"3226 Geary Blvd San Francisco, CA 94118",+14153794549,37.7818512,-122.4537064,$$
B3Sd79v3ZRSiM_37MrmNoQ,DayDream Cake Shop,4.5,143,"1788 32nd Ave San Francisco, CA 94122",+14153702381,37.753908,-122.490217,$$
thrAX79eegx1Of82TCJhrA,Newtree,4.0,221,"1 Ecker St San Francisco, CA 94105",+14157479871,37.7899864,-122.3993247,$$
Uwixn8SsCURqEoKy56frqg,Uncle Benny's Donut and Bagel,4.5,279,"2049 Irving St San Francisco, CA 94122",+14157311323,37.76331,-122.480214,$
168JCbfPASa30FoHZZaIEg,Boba Guys,4.0,627,"1522 Fillmore St San Francisco, CA 94115",+14159672622,37.78365,-122.43247,$
nNspr82oQmOB61MQpmfKgQ,Cafe DeStijl,3.5,131,"1 Union St San Francisco, CA 94111",+14152910808,37.8014086051477,-122.400582753622,$$
oqQFjeN92F_tDLeNLwVT8w,Bobaville,4.0,229,"346 Gellert Blvd Daly City, CA 94015",,37.66737517,-122.46911233,N/A
Wh6f2o8JDrSy5sz3IjfTfQ,Wooden Table Cafe,4.5,75,"2300 Broadway Ste A Oakland, CA 94612",+15108796105,37.81229,-122.26579,$$
wsQp-xOl3apgxOtdVGVPvg,Standard Fare,4.5,160,"2701 8th St Berkeley, CA 94710",+15103562261,37.8571739,-122.2917927,$$
c2s4NY6M7NuD6FOWDa7YCw,Destination Baking Company,4.0,285,"598 Chenery St San Francisco, CA 94131",+14154690730,37.734663918065,-122.43228173013,$$
Rqahy3oCYnQCYd2Shc3cVA,The Castro Fountain,4.5,131,"554 Castro St San Francisco, CA 94114",+14158345457,37.75999,-122.43528,$$
VxtDQfBA3ECjTUO7CG1YXQ,Victoria Pastry,4.0,504,"700 Filbert St San Francisco, CA 94133",+14157812015,37.80135,-122.41129,$$
0MGLcD6JKXL1iJvA9CxSCw,Road House Coffee Company,3.5,22,"5191 3rd St San Francisco, CA 94124",+14156712075,37.730884552002,-122.391777038574,$
LP-1AKyY6tFkUvmd1p11-Q,Fillmore Street Cafe,4.0,152,"1301 Fillmore St San Francisco, CA 94115",+14157490987,37.78181,-122.43325,$
fQ0qGzZJ4xbMfRyXK-M9DQ,Original Bakery,4.5,25,"1343 Powell St San Francisco, CA 94133",+14157813266,37.7970153,-122.4103219,$
dhJ-FFg_C5-c-ejyeUA69g,Cafe Coco,3.5,139,"4201 Geary Blvd San Francisco, CA 94118",+14157501898,37.7808001,-122.4644324,$
4Evz9GP3mBmkZRptFLqTfg,La Boulangerie de San Francisco - Sutter,3.5,168,"222 Sutter St San Francisco, CA 94108",+16284443532,37.79008,-122.404491,$$
sLYsHKIEKW6hIRQdm-soMA,Konditorei,4.0,114,"3130 Alpine Rd Ste 284 Portola Valley, CA 94028",+16508548616,37.401358,-122.1928743,$
3KtEvuj2kEnBX63GJn-8ug,La Lucha Coffee Bar,4.0,13,"1600 17th St San Francisco, CA 94107",+14152521330,37.7650676784283,-122.399846653878,$
wlvsfQyUOwkGHFsp-ZlIAQ,Kamson Coffee,5.0,53,"819 Francisco Blvd W San Rafael, CA 94901",,37.96074,-122.51045,$$
EPge_PZ91BHBbkLlHs-r6Q,Sweet Maria's Coffee Warehouse,4.5,109,"2823 Adeline St Oakland, CA 94608",+18888765917,37.8207389817934,-122.282433790521,$
WOp1IMIT4DqRSk9mL0vyzg,Saltwater Bakery,4.5,84,"1905 Palmetto Ave Pacifica, CA 94044",+16507359160,37.63449,-122.49179,$
fEkWcFjBIfV65DcgVdwDhw,Starbucks,2.5,104,"1799 Fulton St San Francisco, CA 94117",+14154748930,37.77566,-122.44621,$
e3d-jYxVx7YLTxQ2CEmb0g,Pete's Deli & Cafe,4.0,167,"1661 Divisadero St San Francisco, CA 94115",+14159314800,37.78508,-122.44007,$
yfe1OCxNElTa372DL5reYA,Foodhall,4.0,84,"3100 16th St San Francisco, CA 94103",+14158726822,37.7650673678138,-122.422114089131,$$
9eZx_fKfeTdUspFIak7eGA,BoVida,4.5,10,"6 Wharf Rd ste 10 Bolinas, CA 94924",,37.9094830921374,-122.686103470623,N/A
fQdVnPck_6cOOxO36hweeA,The Social Study,4.0,448,"1795 Geary Blvd San Francisco, CA 94115",+14152927417,37.7841219381414,-122.432474792004,$$
D1GB7el1CaX-22CkX94zfw,KitTea Cat Cafe,4.5,752,"96 Gough St San Francisco, CA 94102",+14156587888,37.7739346,-122.4222081,$$
Z5G6Va64QQwYBXNpO74nMw,Peet's Coffee,3.5,166,"2197 Fillmore St San Francisco, CA 94115",+14155639930,37.7896386,-122.4341393,$
MJ-N4HIVyb59qcHN2zVqMg,Noeteca Wine Bar,4.5,465,"1551 Dolores St San Francisco, CA 94110",+14158245524,37.74453,-122.42407,$$
KjxwZv1L46R5WcJJXoI6IA,Batter Bakery,4.0,151,"1517 Pine St San Francisco, CA 94109",+14156741069,37.7894973,-122.420811,$$
1pwKcUXo27a-d-EClQY04Q,The Soapbox Cafe,4.5,163,"1800 Hyde St San Francisco, CA 94109",+14158143391,37.79748,-122.41847,$
s_flMNwYHcyyWhe0qhevsA,Mai Mai Sandwich & Bakery,4.5,17,"750 Clement St San Francisco, CA 94118",+14157026026,37.78296,-122.46745,N/A
IJk76B-pTta_klpAZcpQdA,Lou's Cafe,4.5,1485,"5017 Geary Blvd San Francisco, CA 94118",+14153794429,37.78045,-122.473308,$$
A5c_YFOIy8KpXwhayg0pbg,La Boulangerie de San Francisco - Montgomery,3.5,19,"655 Montgomery St San Francisco, CA 94111",+14158298083,37.79523,-122.4036,N/A
F-iCd6C7NdVIIiRd2RmYHA,Joyride Coffee Distributors,3.5,7,"1485 Yosemite Ave San Francisco, CA 94124",+19176703314,37.7252960205078,-122.389762878418,N/A
U9HWtltvf_U2y1wYSOwFUA,Fresh Brew Coffee,4.5,567,"882 Bush St San Francisco, CA 94108",+14155670915,37.79001,-122.41177,$
KJabJhRKtqUE_wCKgpimUQ,Gather Cafe,4.0,27,"44 Tehama St Fl 1 San Francisco, CA 94105",+14158051888,37.7875057775181,-122.396492365607,$
RmYvlTMKTGzfCJ-u8kqVIA,The Grind Cafe,3.5,550,"783 Haight St San Francisco, CA 94117",+14158640955,37.771394,-122.435049,$$
MjeuqfVgxCL_XVJJoCLTFg,Fiore Caffè,4.0,331,"3599 24th St San Francisco, CA 94110",+14156424822,37.7518694874495,-122.422624123279,$$
7riaDqBQzq5vuUxJCk5KDg,The Epicurean Trader,4.5,94,"401 Cortland Ave San Francisco, CA 94110",+14158729484,37.739342,-122.417665,$$
vVN_oVe6jvr4PCmXg_m9CA,Hollywood Cafe,4.5,2080,"530 North Point St San Francisco, CA 94133",+14155633779,37.8065799,-122.41584,$$
qkArHlJuZHD4Cqe98yCnFQ,Simple Pleasures Cafe,3.5,453,"3434 Balboa St San Francisco, CA 94121",+14153874022,37.7759774,-122.495829,$
QQwsy-M3O5w6FSPaVFJ3uQ,Brioche Bakery & Cafe,4.0,500,"210 Columbus Ave San Francisco, CA 94133",+14157650412,37.7973133,-122.4055275,$$
PDggPaKu5IBbvG-1bnDInw,Shoreline Coffee Shop,3.5,249,"221 Shoreline Hwy Mill Valley, CA 94941",+14153889085,37.8798469570829,-122.524675015149,$$
Z5hz_51pEMo5UcexwrQV2Q,Robin's Cafe,4.0,49,"3153 17th St San Francisco, CA 94110",+14155498549,37.76338,-122.41644,$$
o_687zG5kw-GdtVCMN7Z7g,Panaderia La Mexicana Bakery,4.5,108,"2804 24th St San Francisco, CA 94110",+14156482633,37.7527959371649,-122.408736793918,$
8_5lOQxTEzQ_1NQRU_XTdw,Penelope's Coffee and Tea,4.5,287,"3 Plaza View Ln Ste N Foster City, CA 94404",+16503934035,37.56446,-122.270244,$$
DkwnDuQ295aH-InHJFsVNw,Cumaica,3.0,91,"2800 California St San Francisco, CA 94115",+14159312281,37.78829,-122.44078,$
iDm6Y-DCWtH3OXPaY4gbpA,Cup & Cake Cafe,4.0,172,"3500 Geary Blvd San Francisco, CA 94118",+14159336373,37.781665802002,-122.456840515137,$
2llqB7nN-Dne7wQ-8LSRTw,P-Town Coffee & Tea,4.0,111,"152 Reina Del Mar Ave Pacifica, CA 94044",+16507355529,37.61313,-122.48724,$
dv9gdJrBG7SZ8aWYkxG_3w,Sutter St. Cafe,4.5,194,"450 Sutter St San Francisco, CA 94108",+14153628342,37.7894760577176,-122.407699611023,$
oNax3QErl61BzbEmI8nSuA,The Hidden Cafe,5.0,20,"1250 Addison St Ste 111 Berkeley, CA 94702",,37.868575,-122.286883,N/A
jOA5kgUpiq43BAX_KEl4NQ,Cafe X One Bush,4.5,27,"1 Bush St San Francisco, CA 94104",+14152956021,37.7910764746427,-122.400610663893,$$
pPG8D7FKUIaBATo1T3diiQ,San Francisco Coffee Company,5.0,4,"70 13th St San Francisco, CA 94103",+14156267956,37.76981,-122.41495,$$
HqO96FGDCWebLVuyNbAVsQ,Royal Coffee,5.0,1,"3306 Powell St Emeryville, CA 94608",+15106524256,37.8373049,-122.31324,N/A
HoCJvPj6oyeMtxROFyCPxQ,Souvenir Coffee,4.5,78,"3084 Claremont Ave Berkeley, CA 94705",+15104500505,37.8543148,-122.2485211,$$
dBLUh8sz_Sh_fnHYNkaCrg,Sweet Bar Bakery,4.0,447,"2355 Broadway Oakland, CA 94612",+15107884997,37.8133656093264,-122.265759777492,$$
PhRj3okiYEWNLnlCihwOHA,Toy Boat Dessert Café,4.0,673,"401 Clement St San Francisco, CA 94118",+14157517505,37.7829406410456,-122.463481798768,$
Qq8qdvBDwN4qeu5_PdGmUg,Simply SF,4.0,5,"202 Division St FITNESS SF SOMA San Francisco, CA 94103",+14155524563,37.7695263,-122.4063651,$$
esDzzEHcMY3TyqqbHuUS-g,Coyote Coffee,4.5,31,"215 Shoreline Hwy Mill Valley, CA 94941",+14153265009,37.8800019859681,-122.523856989978,$
DuR57PtCcuSHoWH4rK83lQ,Kien Thanh Coffee Shop,4.5,4,"431 Eddy St San Francisco, CA 94109",+14157752606,37.78343,-122.41469,N/A
TE618FOFfp3TSOGDxKMT1A,Parlor 1255,4.0,131,"1255 Battery St San Francisco, CA 94111",+14152490802,37.8028693692957,-122.402824911317,$$
0lQgl2OsWX6wWOgYymnM9Q,Hideaway Cafe,5.0,1,"850 Jones St San Francisco, CA 94109",+14154566786,37.78929,-122.41352,N/A
f_ikvmt6Abs8PY9nuzMmGg,Red Giant Coffee,4.5,338,"2400 Broadway St Ste 110 Redwood City, CA 94063",+16502604356,37.486619,-122.231402,$$
21vRXkeE301CX79f0xLStg,Picnic on Third,4.5,285,"493 3rd St San Francisco, CA 94107",+14155002569,37.7815361,-122.3959045,$$
CSIH_v9v5z7-0sgw3bGZaQ,Happy Lemon,4.0,245,"1150 El Camino Real San Bruno, CA 94066",+16508732000,37.637204,-122.417662,$
Bi1z7sru6264qcOBjk4tbQ,Blue Tiger Coffee Service,4.0,1,"1171 Quesada Ave San Francisco, CA 94124",+14157483492,37.7276115,-122.381367,$$
OkU6eW1ncO2MOMO6ACUstA,The Village Hub,5.0,2,"3154 Woodside Rd Woodside, CA 94062",+16508511588,37.428855,-122.258488,N/A
N8zmMwY0kB80mkFyi1V4Ug,Pye,4.5,33,"San Francisco, CA 94129",+14158304660,37.79984,-122.46247,N/A
W0IW4KaU28p-mmF_bb6--w,Fearless Coffee,3.0,110,"303 2nd St San Francisco, CA 94107",+14156920181,37.7852917248521,-122.395425822571,$
Id2aVe9l5YQlHtlXnGye-Q,Wooly Pig,4.5,657,"2295 3rd St San Francisco, CA 94107",+14155928015,37.760662161462,-122.388421141818,$
VZHhWTzPLQcLy9gQgKhrgw,Windmill Coffee House,4.5,15,"2131 Durant Ave Berkeley, CA 94704",+15105294588,37.867111,-122.266018,N/A
EB4afSQ4wEAtBXCuINbnpg,Craftsman and Wolves,4.0,48,"1 Ferry Bldg San Francisco, CA 94111",,37.794746,-122.3932846,$$
ANOeUKm-DlXCavnwYUxq2Q,R&R Coffee,5.0,2,"23 Maine Ave Richmond, CA 94804",+14158750786,37.92816,-122.36978,N/A
VdNIxDG9VwMWhKHeBmVrtg,Starbucks,3.5,129,"3995 24th St San Francisco, CA 94114",+14158261118,37.751341,-122.431709,$
b9ktf-foUwu05x9M67OSNQ,Universal Bakery,4.5,75,"3458 Mission St San Francisco, CA 94110",+14158214971,37.74137,-122.42278,$
BbeE3FtAlrAfr5wk8vkuyw,Yo Soy Café Guatemalteco,4.5,76,"4794 Mission St San Francisco, CA 94112",+14154666900,37.7214723720438,-122.437439265261,$
8oT00ympYI-mQ8KEetQ63g,Zanze's Cheesecake,4.5,990,"2405 Ocean Ave San Francisco, CA 94127",+14153342264,37.72994,-122.46984,$$
TeTLKSWebMOmyl_JwJ3KMA,Hal's Office,4.5,104,"1207 Solano Ave Albany, CA 94706",+15105272326,37.89062,-122.29592,$$
U1g2Yd3tEgw_bAhdwVJLBA,Samovar - Valencia St.,4.0,374,"411 Valencia St San Francisco, CA 94103",+14155536887,37.7663154558352,-122.421848215163,$
I8zP8MuzYoce5Aft9jz0-g,Dr Insomniac's,4.0,276,"800 Grant Ave Novato, CA 94945",+14152467347,38.1072540283203,-122.566497802734,$
O1sRAas2IZQKYVSNZeBagQ,Cracked & Battered,4.5,629,"1434 18th St San Francisco, CA 94107",+14159268645,37.76266,-122.39719,$$
Z661e-IOrGuCcvLLe1lS1w,Laguna Cafe,4.5,382,"1821 Haight St San Francisco, CA 94117",+14157511970,37.7691508621399,-122.452259015659,$$
JUhdVtiIdBXjSTS4494zyw,STEEP Creamery & Tea,4.0,195,"240 Ritch St San Francisco, CA 94107",+14156069336,37.7803345695326,-122.395782692426,$
7pjRM6FIKCOHaAksoL0cMg,Ikon Roastery,4.0,8,"355 McAllister St Civic Center / UN Plaza San Francisco, CA 94102",,37.7802416,-122.4177991,N/A
Yf1h86_E3O8KXjVxhJl4og,Alchemy Collective Cafe,4.0,172,"1741 Alcatraz Ave Berkeley, CA 94703",+15103944758,37.8487144,-122.2724368,$
0Cxbl9uwbtWcscgSVcfavQ,Paddington cafe,4.5,2,"1952 Mountain Blvd Oakland, CA 94611",+15103380388,37.82827,-122.21041,N/A
N-vfl3FXnj4M7N6jW-1EGA,Frena Bakery and Cafe,4.5,401,"132 6th St San Francisco, CA 94103",+16284443666,37.780321,-122.408274,$$
D-b1gFd6fRmqFIQxhG5orw,Special Xtra Coffee,4.5,44,"138 Minna St San Francisco, CA 94105",,37.78704,-122.40044,$
QXjEl1XK5tEp0SQeKtV1AQ,Red Bay Cafe,4.0,62,"2327 Broadway Oakland, CA 94612",+15105175582,37.8125029,-122.2662359,$$
cG-T2OvuPI4leH4NMPR-kg,Philz Coffee,4.5,228,"305 Primrose Rd Burlingame, CA 94010",+16509312655,37.5778100034608,-122.348362728953,$$
-vReRpJAhEyRSnQNgnwheg,Burlap Coffee,5.0,22,"511 40th St Oakland, CA 94609",+15102509238,37.8290987,-122.2649513,N/A
iW4gCYBlun_2Ya-MFhbcUQ,Starbucks,3.0,282,"332 Westlake Ctr Ste 332 Daly City, CA 94015",+16509942948,37.700767,-122.483179,$$
0MZHlH2mD2F4GnC6g8JBQQ,Cafe La Flore,4.0,365,"1032 Clement St San Francisco, CA 94118",+14153862814,37.7827709595657,-122.470544639881,$
MBTcPxDuQ1FRK_k0gji54w,Urban Remedy,4.5,34,"3870 24th St San Francisco, CA 94114",+15109740687,37.75184,-122.42905,$$
4TkFHxPeQxf0ORGZoSqUww,Cafe Buenos Aires,4.5,51,"2999 Shattuck Ave Berkeley, CA 94705",+15108413030,37.85552,-122.26628,$
2yHzbwLFQwKxaJU_dyMCoA,Pete's Coffee Cart,5.0,1,"45 Castro St at Davies Medical Center, CPMC San Francisco, CA 94114",,37.7688881,-122.4356352,$
8gkoR64bzlOoLzsqWTOZkw,R Caffe,4.0,23,"614 Polk St San Francisco, CA 94102",+14154005147,37.7824041992426,-122.418988645077,$
J8VKo3nSZJpMTx8cSDZlbg,Fellini Coffeebar,4.0,118,"1401 University Ave Berkeley, CA 94702",+15108415200,37.87045,-122.28397,$
jtz2wm9pOn_ZwhUIbZIBZQ,Noon All Day,3.5,87,"690 Indiana St San Francisco, CA 94107",+14156193240,37.7617234541221,-122.391720792728,$$
jA19LhDjlhgekIHosBtkkQ,Cafe 101,4.0,100,"1650 Holloway Ave San Francisco, CA 94132",+14153383469,37.7209663,-122.478038,$
G-zfE8d-MP0-lgEFny8kmg,La Boulangerie de San Francisco,3.5,136,"1909 Union St Ste 2 San Francisco, CA 94123",+14157380722,37.79755,-122.43086,$$
86mqumQJrFLdEJFkVCRUew,McLaughlin Coffee Company,5.0,23,"6355 Hollis St Emeryville, CA 94608",+15104282951,37.84448,-122.29112,$$
3SMhkb-pPAfKqQ7TwZcagw,Hedge Coffee,5.0,23,"San Francisco, CA 94112",+14157028531,37.7172966003418,-122.440216064453,$$
CdZ7zKQISLh3p5tDsAz8bA,Lucky Coffee,4.0,4,"1001 Potrero Ave San Francisco, CA 94110",,37.7548828523705,-122.404875382,N/A
A2lE5KbHZrbkke-_XNjKRw,Starbucks,3.0,146,"5455 Geary Blvd San Francisco, CA 94121",+14153868813,37.78008,-122.47805,$$
PpkkyPZs5-BNPNmoU5kXsw,Caffé Central,3.5,193,"133 O'Farrell St San Francisco, CA 94102",+14153742000,37.786421,-122.407304,$
h3RrwhB58GyMJ1gJIROo1A,Cafenated Coffee Company,4.5,77,"2085 Vine St Berkeley, CA 94709",+18003884049,37.88039,-122.26992,$$
7kRcr_Tb2Lx7ZLvEfWzjsg,Apple Fritter,4.0,1213,"1901 S Norfolk St San Mateo, CA 94403",+16505259125,37.55374,-122.29082,$$
po_SEkDkaDLXkBNY4H6Qaw,Cafe Cole,3.5,169,"609 Cole St San Francisco, CA 94117",+14156687771,37.7692677,-122.450821,$
FVklFOV04auuMOJh4IB_Uw,Backyard Brew,4.5,245,"444 S California Ave Palo Alto, CA 94306",+16507047785,37.426025,-122.145386,$
_fCE2jNrLlGwL0PfMKZivw,Si Si Caffe,4.5,36,"910 Country Club Dr Moraga, CA 94556",+19253771908,37.83394,-122.13126,$
AqpZTy5jF-lncQ0048LVdA,Caffe Bonini,5.0,8,"900 Middlefield Rd Ste A REDWOOD CITY, CA 94063",+16503623558,37.48496,-122.22934,N/A
JZ7mUGZU6Etbc1Qn1DHkig,Fog City Java,4.5,56,"580 Crespi Dr Ste A1 Pacifica, CA 94044",+16503554698,37.598311991683,-122.49854367348,$
xfF67q7HGvpKM13QcnLHrA,Starbucks,3.5,156,"100 West Portal San Francisco, CA 94127",+14156648370,37.739714,-122.4673386,$
z4hs0U7K8Bq9nUwYU9k1pQ,The Burrow,4.5,150,"109 Visitacion Brisbane, CA 94005",+14159672622,37.6834642,-122.4028888,$
4v9cjGITgRXguJv6xhTXIA,Basik Cafe,4.0,434,"1958 Polk St San Francisco, CA 94109",,37.7946574694958,-122.421409673989,$$
sMoP2nBW_oRhA8gBQ_L-LQ,Souvenir Coffee,4.5,24,"1114 Solano Ave Albany, CA 94706",,37.89014,-122.29813,$
8fFcoEUK-ljRigA6dWQ2_g,Cafe V,5.0,5,"1825 Post St San Francisco, CA 94115",,37.78497,-122.43185,$$
XOm3hqZSPeByJe4QDubhaQ,Starbucks,3.5,130,"1 Letterman Dr Bldg C San Francisco, CA 94129",+14154411740,37.799293,-122.449466,$
kGXapbSr4LNO8ZNMgHSVDQ,Highwire Coffee Roasters,4.0,140,"2049 San Pablo Ave Berkeley, CA 94702",+15106475270,37.86843,-122.29153,$$
Ix2XPuhR-hr8VN5KtWz5XA,George And Lennie,3.5,63,"277 Golden Gate Ave San Francisco, CA 94102",,37.7815648,-122.4150428,$
K8EcFpeCVOOJNYlWE6gMcQ,Rapha - San Francisco,4.0,104,"2198 Filbert St San Francisco, CA 94123",+14158293683,37.7982491,-122.4356125,$$$
DuBgZ2XHXf1AKT7dsyuMog,Project Juice,3.5,80,"506 Castro St San Francisco, CA 94114",+14157388093,37.7606839,-122.4351537,$$
MVNDDZETSU4Xd4ZmiRTsRA,David Rio - Pop Up,4.0,1,"350 Mission St San Francisco, CA 94105",,37.79089,-122.39669,N/A
gaV5SHzG-0pYXbY5aqXDtw,La Stazione Coffee & Wine Bar,4.0,208,"701 Pennsylvania Ave San Francisco, CA 94107",,37.7573585510254,-122.392845153809,$
OjA5FN5aNimqdxS_8DuvUg,Point Richmond Social Club,5.0,14,"401 S Garrard Blvd Richmond, CA 94801",+15107788629,37.9256813,-122.383359,$
fwMDAijKDwTrt89ltkrmsw,Firebrand Artisan Breads,4.5,331,"2343 Broadway Oakland, CA 94612",+15105949213,37.8127789143741,-122.266112345202,$$
J9UyFeAMsZhqCFNxSFNNkw,All Star Donuts,4.5,259,"901 Clement St San Francisco, CA 94118",+14152219838,37.78259,-122.46896,$
bur2BvDqSvgz0xEBe8HGmg,Barebottle Brewing Company,4.5,415,"1525 Cortland Ave San Francisco, CA 94110",+14152912404,37.7400856018066,-122.409004211426,$$
GNlmRz_DIkNT1PsLhR2zSw,Ma’velous Coffee & Little Griddle,4.0,67,"1408 Market St San Francisco, CA 94102",+14158644292,37.77628,-122.41816,$$
-XlUFPOYhUq9sIGJd6873g,OH Dessert Cafe,4.0,197,"1919 Irving St San Francisco, CA 94122",+14157424917,37.76322,-122.47851,$$
0D6LoK97BWHh5r4gmuc72A,Cafe Pacifica,4.0,235,"1821 Palmetto Ave Pacifica, CA 94044",+16504381808,37.6349049600249,-122.491978186644,$
CyXpImcITlvIfboIy0KVUw,Peet's Coffee,3.5,42,"1400 Mission St Ste 130 San Francisco, CA 94103",+14156104850,37.7752838134766,-122.416488647461,$
CulXUyVFIYqsMgGfp1G9cA,EA Cafe,4.0,2,"729 3rd St San Francisco, CA 94107",+14158729328,37.778601998876,-122.39218223787,N/A
i8w4d8MooJXOtIp-GPsVnA,Tous Les Jours,3.5,201,"1849 El Camino Real Burlingame, CA 94010",+16502399629,37.5954941,-122.385087,$$
2XQm-uFcTS7oc8MFP-8olA,B Patisserie,4.5,2467,"2821 California St San Francisco, CA 94115",+14154401700,37.78783,-122.44073,$$
LHGSCk3oESgDIY-hnG4Kfg,Peet's Coffee,3.5,108,"2080 Chestnut St San Francisco, CA 94123",+14156352393,37.8006369,-122.4378856,$
pmZJDyVrnzqLIXUg_nlUxA,Cumaica,3.5,128,"1398 Mission St San Francisco, CA 94103",+14155512600,37.7756093399956,-122.415846329194,$
AJzxB31EsS4Q5U_psRmLkQ,1951 Coffee Company,4.5,24,"6021 College Ave Oakland, CA 94618",,37.848486,-122.252342,$
3yEcO_lFo8fkEh4O-B1h9A,Nova Rosti,5.0,25,"3095 Kerner Blvd Ste A San Rafael, CA 94901",+14154543064,37.956512,-122.499247,$
-Q-iG5JGTTwfuifDMbXNAQ,Moonlight Cafe,4.0,239,"634 Cortland Ave San Francisco, CA 94110",+14156476448,37.73876,-122.4153,$$
eTDQ2sq5z3h7-_DBaYZTbw,Na Ya Dessert Cafe,4.0,98,"535 Octavia St San Francisco, CA 94102",+14159268638,37.77721,-122.424937,$$
ftCqZFmlv-FIeAunBjVWrw,Victory Point Cafe,4.5,230,"1797 Shattuck Ave Ste A Berkeley, CA 94709",+15109826325,37.8752135832342,-122.268558293581,$
MFDaLXS7lLXk8-eldIhWPA,Peerless Coffee & Tea,4.0,156,"260 Oak St Oakland, CA 94607",+15107631763,37.793275838721,-122.26734755337,$
4CykXfygkNWlz87qkh5SCA,Aroma Tea Shop,4.5,224,"302 6th Ave San Francisco, CA 94118",+14156683788,37.782718,-122.464236,$$
OBatxLEgKxxb2JRl1XTdzQ,Rustic Bakery,3.0,99,"1550 Tiburon Blvd Belvedere Tiburon, CA 94920",+14157976123,37.8752746582031,-122.459953308105,$$
ejw-cbxUkZ3OwxDiJhauAQ,Hasta Muerte Coffee,4.0,140,"2701 Fruitvale Ave Oakland, CA 94601",+15106892922,37.7907,-122.22023,$
akdiz2Ez-wKtBSyQVC4zrA,Corridor Cafe,4.0,96,"100 Van Ness Ave San Francisco, CA 94102",+14158345684,37.77672,-122.41918,$$
onRIsGoPO9hB9yVuTRNNjg,Mission Edge Cafe,3.5,427,"5999 Mission St Daly City, CA 94014",+14153255980,37.7078599,-122.45467,$
UtM3OaQGeLEBRI6kBtkRGw,Blue Bottle Coffee,4.0,11,"703 Market St San Francisco, CA 94103",+15106533394,37.787242,-122.403632,N/A
0IDb7FBI9uMV8GZhV6loHQ,Caffe Acri,3.0,173,"1 Main St Tiburon, CA 94920",+14154358515,37.873239,-122.455758,$$
ECGj_uOTX47MayVCLZei4g,Bread N’ Chu,4.0,63,"1900 Clement St San Francisco, CA 94121",+14157026556,37.782407,-122.479713,$$
_IFE0oABwjMkKyFBVxAZ_g,Fred's Coffee Shop,4.0,911,"1917 Bridgeway Blvd Sausalito, CA 94965",+14153324575,37.862074,-122.494714,$$
JgKinZkjQkoBjS7wexndrA,Awaken Cafe & Roasting,4.0,533,"1429 Broadway Oakland, CA 94612",+15108631440,37.80468,-122.27119,$$
3OfW8FiFSu9v2VB7puZuIw,Highwire Coffee Roasters,4.5,87,"1330 Solano Ave Flowerland Nursery Albany, CA 94706",+15105937587,37.8904,-122.2913,$
qkHlhvv6DrCkvY54ogcPiA,XOX Truffles,4.5,624,"754 Columbus Ave San Francisco, CA 94133",+14154214814,37.80175,-122.41206,$
B76lMItyIiNC_uD4QmqJYg,Le Marais Bakery,3.0,609,"2066 Chestnut St San Francisco, CA 94123",+14153599801,37.8008457,-122.4376677,$$
o4PdehxLcoZvU38lrJ4Yww,Polaris Cafe,4.5,88,"5858 Horton St Ste 151 Emeryville, CA 94608",+15103508225,37.8401992280102,-122.290788797878,$
Ncv_ugVX6O3-I3EewBL3Ig,Foreigner,4.5,155,"60E 3rd Ave Ste 108 San Mateo, CA 94401",+16506201888,37.56364,-122.32461,$$
yhx6TeoQrJyveV76QVb3GQ,Uncle Tetsu,4.0,399,"72 Hillsdale Mall San Mateo, CA 94403",+16504370399,37.5381887,-122.3005903,$$
qGjG43GoNvogez30ISBoAg,The Creamery,3.0,766,"685 4th St San Francisco, CA 94107",+14158961446,37.7773513,-122.39507,$
xLBkrh4Aie9iPCobGfFzog,Caffe Ambrosia,4.5,314,"14 Trinity Pl San Francisco, CA 94104",+14153620538,37.7902092,-122.4025142,$
pq3l9iZBT1P_fv4H4S01wg,Maxfield's House of Caffeine,3.0,275,"398 Dolores St San Francisco, CA 94110",+14152556859,37.7631378431423,-122.426542719978,$
83s1fK79v1oy3Hxd43eOdQ,Hollywood Cafe on Fillmore,4.5,77,"1545 Fillmore St San Francisco, CA 94115",+14158293159,37.78391,-122.43311,$$
dgOM7j47ta8oAjQun6NC_w,Happy Donuts,4.0,245,"3801 24th St San Francisco, CA 94114",+14152855890,37.751624,-122.427602,$
539bR-HnDCDz7EjST_Unzw,Little Bee Baking,4.5,88,"521 Cortland Ave San Francisco, CA 94110",+14155954744,37.73921,-122.41601,$$
JRMyfMidCnVwBo9luOluTQ,The Spanish Table,4.0,40,"130 Clement St San Francisco, CA 94118",+14157026199,37.7833633422852,-122.460777282715,$$
E2Ri3Uudb3ogKfWBJIIhRw,Lokma,4.5,256,"1801 Clement St San Francisco, CA 94121",+14157026219,37.78215,-122.47867,$$
JPT1xC7VaREWr5EW97SgBg,Quetzal Internet Cafe,3.5,395,"1234 Polk St San Francisco, CA 94109",+14156734181,37.78846,-122.41998,$
riRh2HyubcIum0A9-Qxd2g,Caffe Terzetto Express,4.5,28,"400 Parnassus St San Francisco, CA 94122",+14155056019,37.7643219100717,-122.457417815608,$
4P3IuXlg9tP30iTzUA5J4w,Anula's Cafe,4.5,131,"1319 Franklin St Oakland, CA 94612",+15108343023,37.80372,-122.27034,$
_2_1FQO_DGzeCTky0x9DQA,Arizmendi Bakery,4.5,614,"1268 Valencia St San Francisco, CA 94110",+14158269218,37.7525579243294,-122.4210748,$
jP9gx1-4ATJiHFtNjyd3Wg,Wise Sons Bagel & Bakery,3.0,300,"1520 Fillmore St San Francisco, CA 94115",+14158729046,37.78365,-122.43247,$$
-aMtzhlKmeSu03uKTkDlFA,Bicycle Coffee,4.0,255,"364 2nd St Oakland, CA 94607",,37.7954795542872,-122.2742712,$
79uhJaBUfAQzy-mXZZXK5w,Presidio Palms Cafe,3.5,18,"39 Mesa St Ste 108 San Francisco, CA 94129",+14154411360,37.8001208603382,-122.455940768123,$$
wDZTXXbQ2huOdT_XMX58EA,Red Giant Coffee,4.5,27,"390 1st Ave San Mateo, CA 94401",,37.567466,-122.323314,$$
ef9tog39MG5-t-900sfY7w,Norcina,3.5,50,"50 Francisco St Ste 105 San Francisco, CA 94133",+14158298218,37.8060941,-122.4060541,$$
M0xEpdbcmF6iEG7LSST_lQ,Garden House Cafe,4.0,287,"3117 Clement St San Francisco, CA 94121",+14156681640,37.78141,-122.49268,$
fFTzTrRm0qnW1e3arUA4FQ,Caffe Central,4.5,210,"1380 Burlingame Ave Burlingame, CA 94010",+16503152511,37.57811,-122.34821,$$
eOCVoXsOEnbr9c89RD0UEQ,Pork Store Cafe,4.0,1343,"1451 Haight St San Francisco, CA 94117",+14158646981,37.76997,-122.44623,$$
EsnNcX1lxxhUQNtnooRM7A,Z Zoul Cafe,4.5,108,"295 Eddy St San Francisco, CA 94102",+14157570187,37.78373,-122.41226,$
pOGonfd_CgsQ-ZoAK3537g,Brew Cha,4.0,222,"3420 18th St Unit 001 San Francisco, CA 94110",+16288677122,37.7619,-122.41998,N/A
SA2ylqoib_Vb9R0LmH3HVg,Rigolo Café,3.5,604,"3465 California St San Francisco, CA 94118",+14158767777,37.7865423,-122.4511323,$$
UedXQCDG3BzWG9kJjek2Vg,Word A Cafe,5.0,44,"5114 3rd St San Francisco, CA 94124",+14155002501,37.73213,-122.39198,N/A
x1onlhUw-zBLP3KpK2V08Q,Caffe 817,4.0,397,"817 Washington St Oakland, CA 94607",+15102717965,37.8011252,-122.2748952,$$
khpoEMBwgQitHAqVVMrOog,Boba Guys,4.0,285,"1002 16th St San Francisco, CA 94107",+14159672622,37.7665676429306,-122.397055947925,$
rTWCRx47a9yORkoDpc6iIQ,1951 Coffee Shop,4.5,216,"2410 Channing Way Berkeley, CA 94704",+15102806171,37.866628616586,-122.260679141232,$
hpop-wAw4SD4fcCBddVKSQ,Harbor Court Cafe,4.0,4,"165 Steuart St San Francisco, CA 94105",+14158821300,37.79257,-122.39213,N/A
2-Xorf2VuA4j3P7SC3Y7LA,Yummy Home Plate,5.0,1,"177 Townsend St San Francisco, CA 94107",,37.778982,-122.391752,N/A
xpRT-9y9MFljHAjGqNsflg,BAMBU,3.5,272,"2223 Gellert Blvd South San Francisco, CA 94080",+16508783333,37.649195,-122.4530236,$
3ge84lPejGWUzPH4-hBt2g,Tertulia Coffee,4.0,165,"1951 Telegraph Ave Oakland, CA 94612",+15103507871,37.8094692689392,-122.269812896848,$$
Ml0ZjPaKXYmXTyGLvkhY8A,Samovar Tea - Yerba Buena Gardens,4.0,2403,"730 Howard St Yerba Buena Gardens San Francisco, CA 94103",+14152279400,37.7841774486315,-122.402068620684,$$
RAO5L5XSbZtg2oIGOftN2Q,Battery Street Coffee Roastery,3.0,99,"950 Battery St San Francisco, CA 94111",+14159569772,37.8002281188965,-122.401023864746,$
_7PmCSs1oEGLevlonhdFRw,Daniel's Cafe,4.0,290,"154 Ellis St San Francisco, CA 94102",+14159561760,37.7855284,-122.4088907,$
a5mhwQst-nMDiQLGyusxCA,Ali's Gourmet,5.0,1,"451 Castro St San Francisco, CA 94114",+14157570853,37.76173,-122.43479,N/A
z8yCIEQwinVk0-JDd_yXtQ,Cherry Blossom Bakery,4.0,149,"844 Clement St San Francisco, CA 94118",+14158762727,37.78301,-122.46835,$
5oTMdBQj8cVvfr_Z7OkaYw,Jump Start Coffee & Grocery,4.5,107,"1192 Guerrero St San Francisco, CA 94110",+14156427555,37.752118894686,-122.42306935858,$
2L_dX4Pccee8zCXdn0a3Zg,Peet's Coffee,3.0,84,"1630 Holloway Ave Fl 1 San Francisco, CA 94132",+14155868002,37.7214418282263,-122.478016018868,$
4jSGcAOcvz0lxwoQrkYFCg,Corner Bakery Cafe,3.0,136,"665 Market St San Francisco, CA 94105",+14159354040,37.7880626,-122.4026897,$$
JY4sSoFkI8vwlEEc5OXT8w,modern coffee,4.5,18,"1300 Clay St City Center Oakland, CA 94612",+15107409767,37.80473,-122.27357,$$
JiutBaeHuA-YjF4xcXUKHA,Timeless Coffee,4.0,112,"2965 College Ave Berkeley, CA 94705",+15109906592,37.8567673,-122.2527918,$$
m0UBOGPfwGZj0ZHG0NehFw,Kaffeehaus,3.5,539,"92 E 3rd Ave San Mateo, CA 94401",+16503474242,37.56388,-122.32418,$$
N6z0so39b9fzGi8UWzI1Ww,Just For You Cafe,4.0,1418,"732 22nd St San Francisco, CA 94107",+14156473033,37.7579585099187,-122.388854026794,$$
T2UWlxbZ0nMCvWnyeuV91w,Hip Hop Juice Box,5.0,49,"3960 Adeline St Emeryville, CA 94608",,37.83055,-122.27823,$$
-ohLUEXYLH90Jk-zSloesQ,Dolores Park Cafe,3.5,683,"501 Dolores St San Francisco, CA 94110",+14156212936,37.7613089292578,-122.425828278065,$$
b-HDJNB_E0dYzAxJmO64PA,Ocean Blue Laundromat and Cafe,3.5,19,"8 Valencia St San Francisco, CA 94103",+14159238911,37.7719945230953,-122.4227401,$$
RgWbNEwK3RoOtq6X2xAiRA,Mayah's Restaurant Cafe,4.5,26,"550 15th St San Francisco, CA 94103",+14158171876,37.76742,-122.40622,$
1ay2ZDVZa2KtAAfxPnGJKw,A2/Rustico Cafe,3.5,24,"1111 8th St San Francisco, CA 94107",+14152520180,37.7672647,-122.4001273,$
MbzmHmgqD3UqrJ7eQBn_Kg,Queens,5.0,18,"1235 9th Ave San Francisco, CA 94122",+14157029382,37.76526,-122.46672,N/A
ZPyd-U5jejBL7ZDGsbDs5A,Le Marais Bakery,3.5,277,"498 Sanchez St San Francisco, CA 94114",,37.76126,-122.43084,$$
zdYZtt8GE0yvOLtpJsMr_w,Starbucks Reserve,3.0,151,"2132 Chestnut St San Francisco, CA 94123",+14156736781,37.8006428,-122.438558,$$
vzBSlQezq2GJkDeqBQxdtw,The Original Ghirardelli Ice Cream & Chocolate Shop,4.0,2548,"900 North Point San Francisco, CA 94109",+14154743938,37.80585,-122.42292,$$
aLPMQu5LxhNJhiDaBC30GA,Cup A Joe Coffeehouse,3.5,334,"896 Sutter St San Francisco, CA 94109",+14155637745,37.7886,-122.41502,$
Cvzs3NYvvRgRL7mthx5y5Q,Starbread Bakery,4.5,507,"2211 Gellert Blvd South San Francisco, CA 94015",+16508789524,37.6494744859293,-122.453066647768,$
IDxdEIiwY_x5bxE716hSjQ,Jeremiah's Pick Coffee Company,3.5,21,"1495 Evans Ave San Francisco, CA 94124",+14152069900,37.7416475,-122.3864794,$$
96j3AOrvAXOXlhWYQpUjxg,JOE & THE JUICE,2.5,77,"2213 Fillmore St San Francisco, CA 94115",,37.79009,-122.43425,$$
wT8LK6ZYqolaXY1BHb_fYQ,Highwire Coffee Roasters,4.0,237,"5655 College Ave Oakland, CA 94618",+15106530450,37.843653,-122.251818,$
1Jd60TVbJ4YxK7Hv0sTObQ,District Tea,4.5,84,"2154 Mission St San Francisco, CA 94110",+14156386134,37.76251,-122.41971,$
rt5cAo-LK-0rq8sSPIkehg,Medleno Coffee Shop & Roastery,4.5,14,"199 New Montgomery St Ste A San Francisco, CA 94105",+14156227525,37.786577,-122.399146,N/A
2ZuRBuzTDXSst7TTEXIbaw,The Beanery,4.0,215,"1650 Park St Alameda, CA 94501",+15105218800,37.767719,-122.239433,$
sxq3UDbknqO0IaXa0DW7sg,modern coffee,4.5,312,"411 13th St Tribune Tower Oakland, CA 94612",+15108358000,37.8032776,-122.2711199,$$
bhZdj9c0d_WSd8tN0GDhbQ,Tiger Tea & Juice,4.5,482,"1803 El Camino Real Burlingame, CA 94010",,37.594114,-122.384605,$
ycPjc3FAAp017ed-Qtvhkg,Eon Coffee,4.0,560,"24970 Hesperian Blvd Hayward, CA 94545",+15102640507,37.6453437805176,-122.104835510254,$
RidAKsznqdoeg8Vbg5aaHw,LaLe,4.0,451,"731 Irving St San Francisco, CA 94122",+14155668814,37.763813,-122.465797,$$
7iqJv4Re8o07-3G3VSNPQQ,Mr Bread,4.5,162,"1018 Taraval St San Francisco, CA 94116",+14156816814,37.7431395347794,-122.477141541018,$
cnBPebyTgvriKOP-OSmwxg,illy Caffè,3.5,14,"301 Clay St One Embarcadero Center San Francisco, CA 94111",+14158729575,37.7949346358099,-122.399873724921,$
1SNswbAX-sG9TaQcsOlnMg,Moschetti Café,4.5,22,"925 Marin St Vallejo, CA 94590",+17077310541,38.1050255871,-122.256674069,$$
jgp3WlMySClJ43Zt0bvA2w,Bechelli's Flower Market Cafe,3.5,140,"698 Brannan St San Francisco, CA 94107",+14154957162,37.77605,-122.4003,$$
Zh8P8DUdxGJ2_gJcgUyMBw,Stop N Wrap,4.0,87,"1217 Geneva Ave San Francisco, CA 94112",+14153492074,37.71426,-122.43567,$
6JM7_UNnH8XapdWrUVcX6g,Ashley's Cafe,3.5,294,"4454 California St San Francisco, CA 94118",+14158316269,37.78514,-122.46547,$
QszjFtOypFre1KjCgcxc9Q,Cento Coffee,3.0,11,"150 Broadway San Francisco, CA 94111",,37.7988470852891,-122.400962222087,N/A
8XqIhg9YkqCN47ujWzqBpA,Knead & Nourish,5.0,26,"San Francisco, CA 94127",+14158817747,37.7410815537898,-122.46581052551,N/A
EAvuVMdAwC0FRRFY9iVovQ,Kilovolt Coffee,4.0,186,"1829 Mandela Pkwy Oakland, CA 94607",+15107617041,37.814286,-122.290683,$
iuWH__Go9qSqrPq7qdX4mw,Green Beans Coffee,5.0,5,"900 Larkspur Landing Cir Ste 281 Larkspur, CA 94939",+14154614023,37.9486618041992,-122.509956359863,$$
fZz4TKKdBblNTZE8u0jNEQ,Tala Coffee & Tea,4.0,183,"10734 San Pablo Ave El Cerrito, CA 94530",+15106608555,37.913812,-122.309249,$
jLjbntnlmxsX8gsOxZVUcQ,RAW Sugar Factory,4.0,511,"525 Valencia St San Francisco, CA 94110",+14158726988,37.76444,-122.42157,$$
cLfVNC5_fXKza4rDLWtg0w,Drip Mobile Espresso & Coffee,5.0,11,"Oakland, CA 94606",+15103169909,37.7712165,-122.2824021,$
N2aC6__-NJ2GmDiUaxHqTg,Railroad Expresso,3.5,55,"705 Monterey Blvd San Francisco, CA 94127",+14153334009,37.73125,-122.45133,$
Wz8O8cigmZy1NIn8L5rLsw,Sip Tea Room,4.5,167,"721 Lincoln Way San Francisco, CA 94122",+14156835592,37.76568,-122.4658,$$
H14cy8fxwqCOnJ7aSdQZrw,Subrosa Coffee,4.0,262,"419 40th St Oakland, CA 94609",+15107408020,37.828426,-122.260675,$$
3bG3JXuJHvejq3SUiij6jg,The Coffeesmith,4.0,72,"401 Golden Gate Ave San Francisco, CA 94102",,37.7812725,-122.4173201,$
aI8ZuaVOMPJLHDirI_CrNw,Starbucks,4.0,29,"2435 California St Grand Central Market - Mollie Stone San Francisco, CA 94115",+14155673978,37.788618,-122.434696,$
3RHodpDW0vl6dEU9PuFFOQ,Tu Kim Coffee Shop,4.0,13,"609 Ellis St San Francisco, CA 94109",+14155671685,37.7842706,-122.4163378,$
KtdsNVQ23k0Cunwfi5Ulpw,S'Bastians Coffee,4.5,149,"1725 Woodside Rd Ste C Redwood City, CA 94061",,37.4546345770819,-122.228336248792,$$
MG10-LJ2pDLd65ZEwDpbgw,Three Bees Coffee House,4.0,324,"224 E 3rd Ave San Mateo, CA 94401",+16503442339,37.565161,-122.322496,$
i7S7iv9Nzpi_Ox-ZMA8Dug,The Morning Fix,4.0,178,"1008 Bush St San Francisco, CA 94109",+14158759598,37.78973,-122.41399,$
nazsxzdzrarom2XwIBB0XA,Foundation Cafe,4.0,179,"335 Kearny St San Francisco, CA 94108",+14157818880,37.7912729,-122.4042721,$$
1mRH7RTMOjoDQP3lX_UkSg,Haddon Hill Cafe,4.5,215,"504 Wesley Ave Oakland, CA 94606",,37.8049258019787,-122.248887307942,$$
qABHeqm8wWSFFoy7tro1SQ,Farmshop,3.5,570,"2233 Larkspur Landing Cir Larkspur, CA 94939",+14157556700,37.947277,-122.509117,$$$
HyDEE8EzIqdyHFABngAjnQ,Tart To Tart,3.0,610,"641 Irving St San Francisco, CA 94122",+14155047068,37.76385,-122.46483,$
gBuLECbmaxvxQX9y90EZSA,Cafe Madeleine,4.0,471,"149 New Montgomery St San Francisco, CA 94105",+14152274077,37.7869478294579,-122.399665622613,$
pe6gWOOmCOp2lV1BDLmhiA,BAMBU,4.0,556,"6050 Geary Blvd San Francisco, CA 94121",+14153794683,37.7804,-122.48458,$
zCriNohuFjH4xziiP9UukQ,Papachay Peruvian Coffee,5.0,62,"1431 Old County Rd San Carlos, CA 94070",+16505931999,37.4976682049745,-122.247788608074,$$
bpPiV8kwZ10PWrQ9ZreKIA,Slojoy Coffee Roasters,5.0,31,"1528 Webster St Oakland, CA 94612",+15106711926,37.8048450562928,-122.267681962637,$$
01BcGT2SkIh2t95_M4Tg7w,Pastel Brazzuca,4.5,149,"290 De Haro St San Francisco, CA 94103",+14158007057,37.7663402,-122.4018784,$
F8TmIgBbBXt7JD1Naiwktg,Panini,4.0,157,"1457 Haight St San Francisco, CA 94117",+14155528057,37.76995,-122.44632,$
qu975NgOv1n1oAS2RDheyg,Pineapple King Bakery,4.0,319,"1915 Irving St San Francisco, CA 94122",+14157026118,37.7634042091,-122.478450280618,$
CUZp7vzZMY4ihzKtLEVk3A,Peet's Coffee,4.0,83,"1400 Van Ness Ave San Francisco, CA 94109",+14152307822,37.78869,-122.4216,$
7TgymfxjYBKlzp_Lg_RW_A,Jay's Coffee Teas and Treats,4.0,129,"1414 Encinal Ave Alameda, CA 94501",+15107699030,37.76999,-122.26165,$
xc9iz3CT9v133LFdjhOZcQ,Baker Street Bistro,4.0,605,"2953 Baker St San Francisco, CA 94123",+14159311475,37.7981641888618,-122.445950210094,$$
vx24hB1i2705qTIBqkx0kQ,Angel Island Cafe,3.5,93,"1520 Mar W Ste G Tiburon, CA 94920",+14154353392,37.8680293104953,-122.434429947264,$$
WJmTx5TNmZqv-Wc6kxecYA,Mountain Grounds,4.5,289,"3750 Alhambra Ave Ste 2 Martinez, CA 94553",+14064599206,37.99784,-122.13257,$$
FVH3ioBOI_QvxPgl37GmrA,Malocchio,4.5,2,"613 York St San Francisco, CA 94110",,37.7614637234474,-122.408973276615,N/A
7bO6OHn52SJP4Mi3U-XflQ,The New Spot On Polk,4.5,626,"2401 Polk St San Francisco, CA 94109",+14159137775,37.798839,-122.422409,$$
zXRXuOL92IweSEymGQ5lbw,Starbucks,3.0,100,"2222 Fillmore St San Francisco, CA 94115",+14156733171,37.7902085,-122.433979,$
FAkz3wwQLwC9B4PXVkkBlg,Kiss of Flower de Paris,5.0,21,"San Francisco, CA 94107",,37.76017,-122.39386,N/A
